[
 {
   "postcode":200,
   "place_name":"Australian National University",
   "state_name":"Australian Capital Territory",
   "state_code":"ACT",
   "latitude":-35.2777,
   "longitude":149.1189,
   "accuracy":1
 },
 {
   "postcode":221,
   "place_name":"Barton",
   "state_name":"Australian Capital Territory",
   "state_code":"ACT",
   "latitude":-35.3049,
   "longitude":149.1412,
   "accuracy":4
 },
 {
   "postcode":2540,
   "place_name":"Wreck Bay",
   "state_name":"Australian Capital Territory",
   "state_code":"ACT",
   "latitude":-35.1627,
   "longitude":150.6907,
   "accuracy":4
 },
 {
   "postcode":2540,
   "place_name":"Hmas Creswell",
   "state_name":"Australian Capital Territory",
   "state_code":"ACT",
   "latitude":-35.028,
   "longitude":150.5501,
   "accuracy":3
 },
 {
   "postcode":2540,
   "place_name":"Jervis Bay",
   "state_name":"Australian Capital Territory",
   "state_code":"ACT",
   "latitude":-35.1333,
   "longitude":150.7,
   "accuracy":4
 },
 {
   "postcode":2600,
   "place_name":"Deakin West",
   "state_name":"Australian Capital Territory",
   "state_code":"ACT",
   "latitude":-35.3126,
   "longitude":149.1278,
   "accuracy":3
 },
 {
   "postcode":2600,
   "place_name":"Duntroon",
   "state_name":"Australian Capital Territory",
   "state_code":"ACT",
   "latitude":-35.3,
   "longitude":149.1667,
   "accuracy":4
 },
 {
   "postcode":2600,
   "place_name":"Parliament House",
   "state_name":"Australian Capital Territory",
   "state_code":"ACT",
   "latitude":-35.3126,
   "longitude":149.1278,
   "accuracy":3
 },
 {
   "postcode":2600,
   "place_name":"Yarralumla",
   "state_name":"Australian Capital Territory",
   "state_code":"ACT",
   "latitude":-35.2998,
   "longitude":149.1058,
   "accuracy":4
 },
 {
   "postcode":2600,
   "place_name":"Russell",
   "state_name":"Australian Capital Territory",
   "state_code":"ACT",
   "latitude":-35.2977,
   "longitude":149.151,
   "accuracy":4
 },
 {
   "postcode":2600,
   "place_name":"Barton",
   "state_name":"Australian Capital Territory",
   "state_code":"ACT",
   "latitude":-35.3049,
   "longitude":149.1412,
   "accuracy":4
 },
 {
   "postcode":2600,
   "place_name":"Deakin",
   "state_name":"Australian Capital Territory",
   "state_code":"ACT",
   "latitude":-35.3193,
   "longitude":149.1031,
   "accuracy":4
 },
 {
   "postcode":2600,
   "place_name":"Capital Hill",
   "state_name":"Australian Capital Territory",
   "state_code":"ACT",
   "latitude":-35.3066,
   "longitude":149.1246,
   "accuracy":4
 },
 {
   "postcode":2600,
   "place_name":"Parkes",
   "state_name":"Australian Capital Territory",
   "state_code":"ACT",
   "latitude":-35.3018,
   "longitude":149.1304,
   "accuracy":4
 },
 {
   "postcode":2600,
   "place_name":"Harman",
   "state_name":"Australian Capital Territory",
   "state_code":"ACT",
   "latitude":-35.35,
   "longitude":149.2,
   "accuracy":4
 },
 {
   "postcode":2600,
   "place_name":"Hmas Harman",
   "state_name":"Australian Capital Territory",
   "state_code":"ACT",
   "latitude":-35.31,
   "longitude":149.1385,
   "accuracy":3
 },
 {
   "postcode":2600,
   "place_name":"Canberra",
   "state_name":"Australian Capital Territory",
   "state_code":"ACT",
   "latitude":-35.2835,
   "longitude":149.1281,
   "accuracy":4
 },
 {
   "postcode":2601,
   "place_name":"City",
   "state_name":"Australian Capital Territory",
   "state_code":"ACT",
   "latitude":-35.2813,
   "longitude":149.1293,
   "accuracy":4
 },
 {
   "postcode":2601,
   "place_name":"Canberra",
   "state_name":"Australian Capital Territory",
   "state_code":"ACT",
   "latitude":-35.2835,
   "longitude":149.1281,
   "accuracy":4
 },
 {
   "postcode":2601,
   "place_name":"Acton",
   "state_name":"Australian Capital Territory",
   "state_code":"ACT",
   "latitude":-35.2777,
   "longitude":149.1183,
   "accuracy":4
 },
 {
   "postcode":2601,
   "place_name":"Black Mountain",
   "state_name":"Australian Capital Territory",
   "state_code":"ACT",
   "latitude":-35.2772,
   "longitude":149.1054,
   "accuracy":3
 },
 {
   "postcode":2602,
   "place_name":"Downer",
   "state_name":"Australian Capital Territory",
   "state_code":"ACT",
   "latitude":-35.2446,
   "longitude":149.1447,
   "accuracy":4
 },
 {
   "postcode":2602,
   "place_name":"Hackett",
   "state_name":"Australian Capital Territory",
   "state_code":"ACT",
   "latitude":-35.2495,
   "longitude":149.1635,
   "accuracy":4
 },
 {
   "postcode":2602,
   "place_name":"Watson",
   "state_name":"Australian Capital Territory",
   "state_code":"ACT",
   "latitude":-35.2381,
   "longitude":149.1527,
   "accuracy":4
 },
 {
   "postcode":2602,
   "place_name":"Lyneham",
   "state_name":"Australian Capital Territory",
   "state_code":"ACT",
   "latitude":-35.2398,
   "longitude":149.1307,
   "accuracy":4
 },
 {
   "postcode":2602,
   "place_name":"O'Connor",
   "state_name":"Australian Capital Territory",
   "state_code":"ACT",
   "latitude":-35.2564,
   "longitude":149.1125,
   "accuracy":4
 },
 {
   "postcode":2602,
   "place_name":"Ainslie",
   "state_name":"Australian Capital Territory",
   "state_code":"ACT",
   "latitude":-35.2625,
   "longitude":149.1437,
   "accuracy":4
 },
 {
   "postcode":2602,
   "place_name":"Dickson",
   "state_name":"Australian Capital Territory",
   "state_code":"ACT",
   "latitude":-35.2508,
   "longitude":149.1393,
   "accuracy":4
 },
 {
   "postcode":2603,
   "place_name":"Red Hill",
   "state_name":"Australian Capital Territory",
   "state_code":"ACT",
   "latitude":-35.3262,
   "longitude":149.1191,
   "accuracy":4
 },
 {
   "postcode":2603,
   "place_name":"Manuka",
   "state_name":"Australian Capital Territory",
   "state_code":"ACT",
   "latitude":-35.3126,
   "longitude":149.1278,
   "accuracy":3
 },
 {
   "postcode":2603,
   "place_name":"Griffith",
   "state_name":"Australian Capital Territory",
   "state_code":"ACT",
   "latitude":-35.3253,
   "longitude":149.1371,
   "accuracy":4
 },
 {
   "postcode":2603,
   "place_name":"Forrest",
   "state_name":"Australian Capital Territory",
   "state_code":"ACT",
   "latitude":-35.315,
   "longitude":149.1286,
   "accuracy":4
 },
 {
   "postcode":2604,
   "place_name":"Narrabundah",
   "state_name":"Australian Capital Territory",
   "state_code":"ACT",
   "latitude":-35.3357,
   "longitude":149.1492,
   "accuracy":4
 },
 {
   "postcode":2604,
   "place_name":"Causeway",
   "state_name":"Australian Capital Territory",
   "state_code":"ACT",
   "latitude":-35.3151,
   "longitude":149.1512,
   "accuracy":4
 },
 {
   "postcode":2604,
   "place_name":"Kingston",
   "state_name":"Australian Capital Territory",
   "state_code":"ACT",
   "latitude":-35.3152,
   "longitude":149.1466,
   "accuracy":4
 },
 {
   "postcode":2605,
   "place_name":"Hughes",
   "state_name":"Australian Capital Territory",
   "state_code":"ACT",
   "latitude":-35.3327,
   "longitude":149.0949,
   "accuracy":4
 },
 {
   "postcode":2605,
   "place_name":"Garran",
   "state_name":"Australian Capital Territory",
   "state_code":"ACT",
   "latitude":-35.3421,
   "longitude":149.1085,
   "accuracy":4
 },
 {
   "postcode":2605,
   "place_name":"Curtin",
   "state_name":"Australian Capital Territory",
   "state_code":"ACT",
   "latitude":-35.3246,
   "longitude":149.0776,
   "accuracy":4
 },
 {
   "postcode":2606,
   "place_name":"O'Malley",
   "state_name":"Australian Capital Territory",
   "state_code":"ACT",
   "latitude":-35.3525,
   "longitude":149.1128,
   "accuracy":4
 },
 {
   "postcode":2606,
   "place_name":"Lyons",
   "state_name":"Australian Capital Territory",
   "state_code":"ACT",
   "latitude":-35.3406,
   "longitude":149.074,
   "accuracy":4
 },
 {
   "postcode":2606,
   "place_name":"Chifley",
   "state_name":"Australian Capital Territory",
   "state_code":"ACT",
   "latitude":-35.3534,
   "longitude":149.0768,
   "accuracy":4
 },
 {
   "postcode":2606,
   "place_name":"Woden",
   "state_name":"Australian Capital Territory",
   "state_code":"ACT",
   "latitude":-35.3481,
   "longitude":149.0905,
   "accuracy":3
 },
 {
   "postcode":2606,
   "place_name":"Phillip",
   "state_name":"Australian Capital Territory",
   "state_code":"ACT",
   "latitude":-35.3503,
   "longitude":149.0915,
   "accuracy":4
 },
 {
   "postcode":2606,
   "place_name":"Swinger Hill",
   "state_name":"Australian Capital Territory",
   "state_code":"ACT",
   "latitude":-35.3481,
   "longitude":149.0905,
   "accuracy":3
 },
 {
   "postcode":2607,
   "place_name":"Isaacs",
   "state_name":"Australian Capital Territory",
   "state_code":"ACT",
   "latitude":-35.3686,
   "longitude":149.1156,
   "accuracy":4
 },
 {
   "postcode":2607,
   "place_name":"Torrens",
   "state_name":"Australian Capital Territory",
   "state_code":"ACT",
   "latitude":-35.372,
   "longitude":149.0877,
   "accuracy":4
 },
 {
   "postcode":2607,
   "place_name":"Mawson",
   "state_name":"Australian Capital Territory",
   "state_code":"ACT",
   "latitude":-35.3634,
   "longitude":149.0986,
   "accuracy":4
 },
 {
   "postcode":2607,
   "place_name":"Farrer",
   "state_name":"Australian Capital Territory",
   "state_code":"ACT",
   "latitude":-35.3767,
   "longitude":149.105,
   "accuracy":4
 },
 {
   "postcode":2607,
   "place_name":"Pearce",
   "state_name":"Australian Capital Territory",
   "state_code":"ACT",
   "latitude":-35.3622,
   "longitude":149.0834,
   "accuracy":4
 },
 {
   "postcode":2608,
   "place_name":"Civic Square",
   "state_name":"Australian Capital Territory",
   "state_code":"ACT",
   "latitude":-35.31,
   "longitude":149.1933,
   "accuracy":1
 },
 {
   "postcode":2609,
   "place_name":"Pialligo",
   "state_name":"Australian Capital Territory",
   "state_code":"ACT",
   "latitude":-35.3201,
   "longitude":149.207,
   "accuracy":4
 },
 {
   "postcode":2609,
   "place_name":"Canberra Airport",
   "state_name":"Australian Capital Territory",
   "state_code":"ACT",
   "latitude":-35.3172,
   "longitude":149.1753,
   "accuracy":3
 },
 {
   "postcode":2609,
   "place_name":"Fyshwick",
   "state_name":"Australian Capital Territory",
   "state_code":"ACT",
   "latitude":-35.3333,
   "longitude":149.1667,
   "accuracy":4
 },
 {
   "postcode":2609,
   "place_name":"Symonston",
   "state_name":"Australian Capital Territory",
   "state_code":"ACT",
   "latitude":-35.3516,
   "longitude":149.1592,
   "accuracy":4
 },
 {
   "postcode":2609,
   "place_name":"Majura",
   "state_name":"Australian Capital Territory",
   "state_code":"ACT",
   "latitude":-35.2667,
   "longitude":149.2,
   "accuracy":4
 },
 {
   "postcode":2610,
   "place_name":"Canberra Bc",
   "state_name":"Australian Capital Territory",
   "state_code":"ACT",
   "latitude":-35.2778,
   "longitude":149.0111,
   "accuracy":1
 },
 {
   "postcode":2610,
   "place_name":"Canberra Mc",
   "state_name":"Australian Capital Territory",
   "state_code":"ACT",
   "latitude":-35.2498,
   "longitude":149.0591,
   "accuracy":1
 },
 {
   "postcode":2611,
   "place_name":"Stirling",
   "state_name":"Australian Capital Territory",
   "state_code":"ACT",
   "latitude":-35.3497,
   "longitude":149.0493,
   "accuracy":4
 },
 {
   "postcode":2611,
   "place_name":"Wright",
   "state_name":"Australian Capital Territory",
   "state_code":"ACT",
   "latitude":-35.3224,
   "longitude":149.0346,
   "accuracy":4
 },
 {
   "postcode":2611,
   "place_name":"Coree",
   "state_name":"Australian Capital Territory",
   "state_code":"ACT",
   "latitude":-35.2794,
   "longitude":148.9194,
   "accuracy":4
 },
 {
   "postcode":2611,
   "place_name":"Uriarra Village",
   "state_name":"Australian Capital Territory",
   "state_code":"ACT",
   "latitude":-35.3503,
   "longitude":149.0155,
   "accuracy":3
 },
 {
   "postcode":2611,
   "place_name":"Holder",
   "state_name":"Australian Capital Territory",
   "state_code":"ACT",
   "latitude":-35.3344,
   "longitude":149.0461,
   "accuracy":4
 },
 {
   "postcode":2611,
   "place_name":"Stromlo",
   "state_name":"Australian Capital Territory",
   "state_code":"ACT",
   "latitude":-35.3255,
   "longitude":148.9993,
   "accuracy":4
 },
 {
   "postcode":2611,
   "place_name":"Waramanga",
   "state_name":"Australian Capital Territory",
   "state_code":"ACT",
   "latitude":-35.353,
   "longitude":149.0621,
   "accuracy":4
 },
 {
   "postcode":2611,
   "place_name":"Chapman",
   "state_name":"Australian Capital Territory",
   "state_code":"ACT",
   "latitude":-35.3562,
   "longitude":149.0374,
   "accuracy":4
 },
 {
   "postcode":2611,
   "place_name":"Weston Creek",
   "state_name":"Australian Capital Territory",
   "state_code":"ACT",
   "latitude":-35.3333,
   "longitude":149.05,
   "accuracy":4
 },
 {
   "postcode":2611,
   "place_name":"Mount Stromlo",
   "state_name":"Australian Capital Territory",
   "state_code":"ACT",
   "latitude":-35.4171,
   "longitude":148.7769,
   "accuracy":3
 },
 {
   "postcode":2611,
   "place_name":"Weston",
   "state_name":"Australian Capital Territory",
   "state_code":"ACT",
   "latitude":-35.3358,
   "longitude":149.0593,
   "accuracy":4
 },
 {
   "postcode":2611,
   "place_name":"Coombs",
   "state_name":"Australian Capital Territory",
   "state_code":"ACT",
   "latitude":-35.3163,
   "longitude":149.0394,
   "accuracy":4
 },
 {
   "postcode":2611,
   "place_name":"Uriarra",
   "state_name":"Australian Capital Territory",
   "state_code":"ACT",
   "latitude":-35.4171,
   "longitude":148.7769,
   "accuracy":3
 },
 {
   "postcode":2611,
   "place_name":"Duffy",
   "state_name":"Australian Capital Territory",
   "state_code":"ACT",
   "latitude":-35.3346,
   "longitude":149.0319,
   "accuracy":4
 },
 {
   "postcode":2611,
   "place_name":"Fisher",
   "state_name":"Australian Capital Territory",
   "state_code":"ACT",
   "latitude":-35.3613,
   "longitude":149.057,
   "accuracy":4
 },
 {
   "postcode":2611,
   "place_name":"Rivett",
   "state_name":"Australian Capital Territory",
   "state_code":"ACT",
   "latitude":-35.3471,
   "longitude":149.0379,
   "accuracy":4
 },
 {
   "postcode":2612,
   "place_name":"Campbell",
   "state_name":"Australian Capital Territory",
   "state_code":"ACT",
   "latitude":-35.2891,
   "longitude":149.1538,
   "accuracy":4
 },
 {
   "postcode":2612,
   "place_name":"Turner",
   "state_name":"Australian Capital Territory",
   "state_code":"ACT",
   "latitude":-35.2688,
   "longitude":149.1247,
   "accuracy":4
 },
 {
   "postcode":2612,
   "place_name":"Reid",
   "state_name":"Australian Capital Territory",
   "state_code":"ACT",
   "latitude":-35.2858,
   "longitude":149.1391,
   "accuracy":4
 },
 {
   "postcode":2612,
   "place_name":"Braddon",
   "state_name":"Australian Capital Territory",
   "state_code":"ACT",
   "latitude":-35.2708,
   "longitude":149.1357,
   "accuracy":4
 },
 {
   "postcode":2614,
   "place_name":"Cook",
   "state_name":"Australian Capital Territory",
   "state_code":"ACT",
   "latitude":-35.2601,
   "longitude":149.0657,
   "accuracy":4
 },
 {
   "postcode":2614,
   "place_name":"Aranda",
   "state_name":"Australian Capital Territory",
   "state_code":"ACT",
   "latitude":-35.2582,
   "longitude":149.0804,
   "accuracy":4
 },
 {
   "postcode":2614,
   "place_name":"Page",
   "state_name":"Australian Capital Territory",
   "state_code":"ACT",
   "latitude":-35.2386,
   "longitude":149.0499,
   "accuracy":4
 },
 {
   "postcode":2614,
   "place_name":"Hawker",
   "state_name":"Australian Capital Territory",
   "state_code":"ACT",
   "latitude":-35.2471,
   "longitude":149.0367,
   "accuracy":4
 },
 {
   "postcode":2614,
   "place_name":"Scullin",
   "state_name":"Australian Capital Territory",
   "state_code":"ACT",
   "latitude":-35.2346,
   "longitude":149.039,
   "accuracy":4
 },
 {
   "postcode":2614,
   "place_name":"Jamison Centre",
   "state_name":"Australian Capital Territory",
   "state_code":"ACT",
   "latitude":-35.2498,
   "longitude":149.0591,
   "accuracy":3
 },
 {
   "postcode":2614,
   "place_name":"Weetangera",
   "state_name":"Australian Capital Territory",
   "state_code":"ACT",
   "latitude":-35.2498,
   "longitude":149.0591,
   "accuracy":3
 },
 {
   "postcode":2614,
   "place_name":"Macquarie",
   "state_name":"Australian Capital Territory",
   "state_code":"ACT",
   "latitude":-35.2513,
   "longitude":149.0636,
   "accuracy":4
 },
 {
   "postcode":2615,
   "place_name":"Fraser",
   "state_name":"Australian Capital Territory",
   "state_code":"ACT",
   "latitude":-35.1917,
   "longitude":149.0453,
   "accuracy":4
 },
 {
   "postcode":2615,
   "place_name":"Spence",
   "state_name":"Australian Capital Territory",
   "state_code":"ACT",
   "latitude":-35.1987,
   "longitude":149.0644,
   "accuracy":4
 },
 {
   "postcode":2615,
   "place_name":"Florey",
   "state_name":"Australian Capital Territory",
   "state_code":"ACT",
   "latitude":-35.2259,
   "longitude":149.05,
   "accuracy":4
 },
 {
   "postcode":2615,
   "place_name":"Holt",
   "state_name":"Australian Capital Territory",
   "state_code":"ACT",
   "latitude":-35.2244,
   "longitude":149.0119,
   "accuracy":4
 },
 {
   "postcode":2615,
   "place_name":"Charnwood",
   "state_name":"Australian Capital Territory",
   "state_code":"ACT",
   "latitude":-35.2002,
   "longitude":149.0341,
   "accuracy":4
 },
 {
   "postcode":2615,
   "place_name":"Higgins",
   "state_name":"Australian Capital Territory",
   "state_code":"ACT",
   "latitude":-35.2324,
   "longitude":149.0272,
   "accuracy":4
 },
 {
   "postcode":2615,
   "place_name":"Dunlop",
   "state_name":"Australian Capital Territory",
   "state_code":"ACT",
   "latitude":-35.194,
   "longitude":149.0198,
   "accuracy":4
 },
 {
   "postcode":2615,
   "place_name":"Kippax",
   "state_name":"Australian Capital Territory",
   "state_code":"ACT",
   "latitude":-35.2101,
   "longitude":149.034,
   "accuracy":3
 },
 {
   "postcode":2615,
   "place_name":"Melba",
   "state_name":"Australian Capital Territory",
   "state_code":"ACT",
   "latitude":-35.2102,
   "longitude":149.0541,
   "accuracy":4
 },
 {
   "postcode":2615,
   "place_name":"Flynn",
   "state_name":"Australian Capital Territory",
   "state_code":"ACT",
   "latitude":-35.2059,
   "longitude":149.0439,
   "accuracy":4
 },
 {
   "postcode":2615,
   "place_name":"Latham",
   "state_name":"Australian Capital Territory",
   "state_code":"ACT",
   "latitude":-35.2165,
   "longitude":149.0314,
   "accuracy":4
 },
 {
   "postcode":2615,
   "place_name":"Macgregor",
   "state_name":"Australian Capital Territory",
   "state_code":"ACT",
   "latitude":-35.2098,
   "longitude":149.011,
   "accuracy":4
 },
 {
   "postcode":2615,
   "place_name":"Kippax Centre",
   "state_name":"Australian Capital Territory",
   "state_code":"ACT",
   "latitude":-35.2101,
   "longitude":149.034,
   "accuracy":3
 },
 {
   "postcode":2616,
   "place_name":"Belconnen",
   "state_name":"Australian Capital Territory",
   "state_code":"ACT",
   "latitude":-35.2167,
   "longitude":149.0833,
   "accuracy":4
 },
 {
   "postcode":2617,
   "place_name":"Mckellar",
   "state_name":"Australian Capital Territory",
   "state_code":"ACT",
   "latitude":-35.2175,
   "longitude":149.077,
   "accuracy":4
 },
 {
   "postcode":2617,
   "place_name":"Belconnen",
   "state_name":"Australian Capital Territory",
   "state_code":"ACT",
   "latitude":-35.2167,
   "longitude":149.0833,
   "accuracy":4
 },
 {
   "postcode":2617,
   "place_name":"Evatt",
   "state_name":"Australian Capital Territory",
   "state_code":"ACT",
   "latitude":-35.2119,
   "longitude":149.0689,
   "accuracy":4
 },
 {
   "postcode":2617,
   "place_name":"Lawson",
   "state_name":"Australian Capital Territory",
   "state_code":"ACT",
   "latitude":-35.2241,
   "longitude":149.0998,
   "accuracy":4
 },
 {
   "postcode":2617,
   "place_name":"Giralang",
   "state_name":"Australian Capital Territory",
   "state_code":"ACT",
   "latitude":-35.2109,
   "longitude":149.096,
   "accuracy":4
 },
 {
   "postcode":2617,
   "place_name":"University Of Canberra",
   "state_name":"Australian Capital Territory",
   "state_code":"ACT",
   "latitude":-35.2498,
   "longitude":149.0591,
   "accuracy":3
 },
 {
   "postcode":2617,
   "place_name":"Belconnen DC",
   "state_name":"Australian Capital Territory",
   "state_code":"ACT",
   "latitude":-35.2199,
   "longitude":149.0869,
   "accuracy":3
 },
 {
   "postcode":2617,
   "place_name":"Kaleen",
   "state_name":"Australian Capital Territory",
   "state_code":"ACT",
   "latitude":-35.2181,
   "longitude":149.1052,
   "accuracy":4
 },
 {
   "postcode":2617,
   "place_name":"Bruce",
   "state_name":"Australian Capital Territory",
   "state_code":"ACT",
   "latitude":-35.2441,
   "longitude":149.0908,
   "accuracy":4
 },
 {
   "postcode":2618,
   "place_name":"Hall",
   "state_name":"Australian Capital Territory",
   "state_code":"ACT",
   "latitude":-35.1685,
   "longitude":149.0683,
   "accuracy":4
 },
 {
   "postcode":2620,
   "place_name":"Hume",
   "state_name":"Australian Capital Territory",
   "state_code":"ACT",
   "latitude":-35.3855,
   "longitude":149.1658,
   "accuracy":4
 },
 {
   "postcode":2620,
   "place_name":"Paddys River",
   "state_name":"Australian Capital Territory",
   "state_code":"ACT",
   "latitude":-35.3914,
   "longitude":149.2166,
   "accuracy":3
 },
 {
   "postcode":2620,
   "place_name":"Beard",
   "state_name":"Australian Capital Territory",
   "state_code":"ACT",
   "latitude":-35.3422,
   "longitude":149.2101,
   "accuracy":4
 },
 {
   "postcode":2620,
   "place_name":"Oaks Estate",
   "state_name":"Australian Capital Territory",
   "state_code":"ACT",
   "latitude":-35.3397,
   "longitude":149.2121,
   "accuracy":4
 },
 {
   "postcode":2620,
   "place_name":"Tharwa",
   "state_name":"Australian Capital Territory",
   "state_code":"ACT",
   "latitude":-35.5167,
   "longitude":149.0667,
   "accuracy":4
 },
 {
   "postcode":2620,
   "place_name":"Kowen",
   "state_name":"Australian Capital Territory",
   "state_code":"ACT",
   "latitude":-35.3914,
   "longitude":149.2166,
   "accuracy":3
 },
 {
   "postcode":2900,
   "place_name":"Greenway",
   "state_name":"Australian Capital Territory",
   "state_code":"ACT",
   "latitude":-35.4183,
   "longitude":149.0666,
   "accuracy":4
 },
 {
   "postcode":2900,
   "place_name":"Tuggeranong",
   "state_name":"Australian Capital Territory",
   "state_code":"ACT",
   "latitude":-35.4158,
   "longitude":149.0649,
   "accuracy":3
 },
 {
   "postcode":2901,
   "place_name":"Tuggeranong Dc",
   "state_name":"Australian Capital Territory",
   "state_code":"ACT",
   "latitude":-35.4333,
   "longitude":149.15,
   "accuracy":1
 },
 {
   "postcode":2902,
   "place_name":"Kambah",
   "state_name":"Australian Capital Territory",
   "state_code":"ACT",
   "latitude":-35.3862,
   "longitude":149.058,
   "accuracy":4
 },
 {
   "postcode":2902,
   "place_name":"Kambah Village",
   "state_name":"Australian Capital Territory",
   "state_code":"ACT",
   "latitude":-35.3862,
   "longitude":149.058,
   "accuracy":3
 },
 {
   "postcode":2903,
   "place_name":"Erindale Centre",
   "state_name":"Australian Capital Territory",
   "state_code":"ACT",
   "latitude":-35.3998,
   "longitude":149.0888,
   "accuracy":3
 },
 {
   "postcode":2903,
   "place_name":"Oxley",
   "state_name":"Australian Capital Territory",
   "state_code":"ACT",
   "latitude":-35.4095,
   "longitude":149.0786,
   "accuracy":4
 },
 {
   "postcode":2903,
   "place_name":"Wanniassa",
   "state_name":"Australian Capital Territory",
   "state_code":"ACT",
   "latitude":-35.3978,
   "longitude":149.0909,
   "accuracy":4
 },
 {
   "postcode":2904,
   "place_name":"Fadden",
   "state_name":"Australian Capital Territory",
   "state_code":"ACT",
   "latitude":-35.405,
   "longitude":149.1166,
   "accuracy":4
 },
 {
   "postcode":2904,
   "place_name":"Monash",
   "state_name":"Australian Capital Territory",
   "state_code":"ACT",
   "latitude":-35.4158,
   "longitude":149.0906,
   "accuracy":4
 },
 {
   "postcode":2904,
   "place_name":"Gowrie",
   "state_name":"Australian Capital Territory",
   "state_code":"ACT",
   "latitude":-35.4119,
   "longitude":149.109,
   "accuracy":4
 },
 {
   "postcode":2904,
   "place_name":"Macarthur",
   "state_name":"Australian Capital Territory",
   "state_code":"ACT",
   "latitude":-35.4089,
   "longitude":149.127,
   "accuracy":4
 },
 {
   "postcode":2905,
   "place_name":"Isabella Plains",
   "state_name":"Australian Capital Territory",
   "state_code":"ACT",
   "latitude":-35.4283,
   "longitude":149.088,
   "accuracy":4
 },
 {
   "postcode":2905,
   "place_name":"Theodore",
   "state_name":"Australian Capital Territory",
   "state_code":"ACT",
   "latitude":-35.4496,
   "longitude":149.1197,
   "accuracy":4
 },
 {
   "postcode":2905,
   "place_name":"Gilmore",
   "state_name":"Australian Capital Territory",
   "state_code":"ACT",
   "latitude":-35.4199,
   "longitude":149.1348,
   "accuracy":4
 },
 {
   "postcode":2905,
   "place_name":"Richardson",
   "state_name":"Australian Capital Territory",
   "state_code":"ACT",
   "latitude":-35.4279,
   "longitude":149.1138,
   "accuracy":4
 },
 {
   "postcode":2905,
   "place_name":"Calwell",
   "state_name":"Australian Capital Territory",
   "state_code":"ACT",
   "latitude":-35.4404,
   "longitude":149.1071,
   "accuracy":4
 },
 {
   "postcode":2905,
   "place_name":"Chisholm",
   "state_name":"Australian Capital Territory",
   "state_code":"ACT",
   "latitude":-35.4125,
   "longitude":149.1283,
   "accuracy":4
 },
 {
   "postcode":2905,
   "place_name":"Bonython",
   "state_name":"Australian Capital Territory",
   "state_code":"ACT",
   "latitude":-35.4333,
   "longitude":149.0782,
   "accuracy":4
 },
 {
   "postcode":2906,
   "place_name":"Conder",
   "state_name":"Australian Capital Territory",
   "state_code":"ACT",
   "latitude":-35.4593,
   "longitude":149.1042,
   "accuracy":4
 },
 {
   "postcode":2906,
   "place_name":"Gordon",
   "state_name":"Australian Capital Territory",
   "state_code":"ACT",
   "latitude":-35.4568,
   "longitude":149.085,
   "accuracy":4
 },
 {
   "postcode":2906,
   "place_name":"Banks",
   "state_name":"Australian Capital Territory",
   "state_code":"ACT",
   "latitude":-35.4719,
   "longitude":149.0997,
   "accuracy":4
 },
 {
   "postcode":2911,
   "place_name":"Mitchell",
   "state_name":"Australian Capital Territory",
   "state_code":"ACT",
   "latitude":-35.2145,
   "longitude":149.1293,
   "accuracy":4
 },
 {
   "postcode":2911,
   "place_name":"Crace",
   "state_name":"Australian Capital Territory",
   "state_code":"ACT",
   "latitude":-35.2028,
   "longitude":149.1074,
   "accuracy":4
 },
 {
   "postcode":2912,
   "place_name":"Gungahlin",
   "state_name":"Australian Capital Territory",
   "state_code":"ACT",
   "latitude":-35.1867,
   "longitude":149.1362,
   "accuracy":4
 },
 {
   "postcode":2913,
   "place_name":"Casey",
   "state_name":"Australian Capital Territory",
   "state_code":"ACT",
   "latitude":-35.167,
   "longitude":149.0947,
   "accuracy":4
 },
 {
   "postcode":2913,
   "place_name":"Franklin",
   "state_name":"Australian Capital Territory",
   "state_code":"ACT",
   "latitude":-35.1995,
   "longitude":149.1433,
   "accuracy":4
 },
 {
   "postcode":2913,
   "place_name":"Taylor",
   "state_name":"Australian Capital Territory",
   "state_code":"ACT",
   "latitude":-35.1489,
   "longitude":149.1092,
   "accuracy":4
 },
 {
   "postcode":2913,
   "place_name":"Palmerston",
   "state_name":"Australian Capital Territory",
   "state_code":"ACT",
   "latitude":-35.1945,
   "longitude":149.1194,
   "accuracy":4
 },
 {
   "postcode":2913,
   "place_name":"Kinlyside",
   "state_name":"Australian Capital Territory",
   "state_code":"ACT",
   "latitude":-35.1754,
   "longitude":149.0798,
   "accuracy":4
 },
 {
   "postcode":2913,
   "place_name":"Nicholls",
   "state_name":"Australian Capital Territory",
   "state_code":"ACT",
   "latitude":-35.1873,
   "longitude":149.0965,
   "accuracy":4
 },
 {
   "postcode":2913,
   "place_name":"Ginninderra Village",
   "state_name":"Australian Capital Territory",
   "state_code":"ACT",
   "latitude":-35.1875,
   "longitude":149.1244,
   "accuracy":3
 },
 {
   "postcode":2913,
   "place_name":"Ngunnawal",
   "state_name":"Australian Capital Territory",
   "state_code":"ACT",
   "latitude":-35.1728,
   "longitude":149.1115,
   "accuracy":4
 },
 {
   "postcode":2914,
   "place_name":"Bonner",
   "state_name":"Australian Capital Territory",
   "state_code":"ACT",
   "latitude":-35.1623,
   "longitude":149.1386,
   "accuracy":4
 },
 {
   "postcode":2914,
   "place_name":"Forde",
   "state_name":"Australian Capital Territory",
   "state_code":"ACT",
   "latitude":-35.1682,
   "longitude":149.1461,
   "accuracy":4
 },
 {
   "postcode":2914,
   "place_name":"Harrison",
   "state_name":"Australian Capital Territory",
   "state_code":"ACT",
   "latitude":-35.1991,
   "longitude":149.1563,
   "accuracy":4
 },
 {
   "postcode":2914,
   "place_name":"Amaroo",
   "state_name":"Australian Capital Territory",
   "state_code":"ACT",
   "latitude":-35.1696,
   "longitude":149.128,
   "accuracy":4
 },
 {
   "postcode":2914,
   "place_name":"Moncrieff",
   "state_name":"Australian Capital Territory",
   "state_code":"ACT",
   "latitude":-35.1651,
   "longitude":149.1179,
   "accuracy":4
 },
 {
   "postcode":2914,
   "place_name":"Jacka",
   "state_name":"Australian Capital Territory",
   "state_code":"ACT",
   "latitude":-35.1568,
   "longitude":149.1288,
   "accuracy":4
 },
 {
   "postcode":1001,
   "place_name":"Sydney",
   "state_name":"New South Wales",
   "state_code":"NSW",
   "latitude":-33.8678,
   "longitude":151.2073,
   "accuracy":4
 },
 {
   "postcode":1002,
   "place_name":"Sydney",
   "state_name":"New South Wales",
   "state_code":"NSW",
   "latitude":-33.8678,
   "longitude":151.2073,
   "accuracy":4
 },
 {
   "postcode":1003,
   "place_name":"Sydney",
   "state_name":"New South Wales",
   "state_code":"NSW",
   "latitude":-33.8678,
   "longitude":151.2073,
   "accuracy":4
 },
 {
   "postcode":1004,
   "place_name":"Sydney",
   "state_name":"New South Wales",
   "state_code":"NSW",
   "latitude":-33.8678,
   "longitude":151.2073,
   "accuracy":4
 },
 {
   "postcode":1005,
   "place_name":"Sydney",
   "state_name":"New South Wales",
   "state_code":"NSW",
   "latitude":-33.8678,
   "longitude":151.2073,
   "accuracy":4
 },
 {
   "postcode":1006,
   "place_name":"Sydney",
   "state_name":"New South Wales",
   "state_code":"NSW",
   "latitude":-33.8678,
   "longitude":151.2073,
   "accuracy":4
 },
 {
   "postcode":1007,
   "place_name":"Sydney",
   "state_name":"New South Wales",
   "state_code":"NSW",
   "latitude":-33.8678,
   "longitude":151.2073,
   "accuracy":4
 },
 {
   "postcode":1008,
   "place_name":"Sydney",
   "state_name":"New South Wales",
   "state_code":"NSW",
   "latitude":-33.8678,
   "longitude":151.2073,
   "accuracy":4
 },
 {
   "postcode":1009,
   "place_name":"Sydney",
   "state_name":"New South Wales",
   "state_code":"NSW",
   "latitude":-33.8678,
   "longitude":151.2073,
   "accuracy":4
 },
 {
   "postcode":1010,
   "place_name":"Sydney",
   "state_name":"New South Wales",
   "state_code":"NSW",
   "latitude":-33.8678,
   "longitude":151.2073,
   "accuracy":4
 },
 {
   "postcode":1011,
   "place_name":"Sydney",
   "state_name":"New South Wales",
   "state_code":"NSW",
   "latitude":-33.8678,
   "longitude":151.2073,
   "accuracy":4
 },
 {
   "postcode":1020,
   "place_name":"Sydney",
   "state_name":"New South Wales",
   "state_code":"NSW",
   "latitude":-33.8678,
   "longitude":151.2073,
   "accuracy":4
 },
 {
   "postcode":1021,
   "place_name":"Sydney",
   "state_name":"New South Wales",
   "state_code":"NSW",
   "latitude":-33.8678,
   "longitude":151.2073,
   "accuracy":4
 },
 {
   "postcode":1022,
   "place_name":"Sydney",
   "state_name":"New South Wales",
   "state_code":"NSW",
   "latitude":-33.8678,
   "longitude":151.2073,
   "accuracy":4
 },
 {
   "postcode":1023,
   "place_name":"Sydney",
   "state_name":"New South Wales",
   "state_code":"NSW",
   "latitude":-33.8678,
   "longitude":151.2073,
   "accuracy":4
 },
 {
   "postcode":1025,
   "place_name":"Sydney",
   "state_name":"New South Wales",
   "state_code":"NSW",
   "latitude":-33.8678,
   "longitude":151.2073,
   "accuracy":4
 },
 {
   "postcode":1026,
   "place_name":"Sydney",
   "state_name":"New South Wales",
   "state_code":"NSW",
   "latitude":-33.8678,
   "longitude":151.2073,
   "accuracy":4
 },
 {
   "postcode":1027,
   "place_name":"Sydney",
   "state_name":"New South Wales",
   "state_code":"NSW",
   "latitude":-33.8678,
   "longitude":151.2073,
   "accuracy":4
 },
 {
   "postcode":1028,
   "place_name":"Sydney",
   "state_name":"New South Wales",
   "state_code":"NSW",
   "latitude":-33.8678,
   "longitude":151.2073,
   "accuracy":4
 },
 {
   "postcode":1029,
   "place_name":"Sydney",
   "state_name":"New South Wales",
   "state_code":"NSW",
   "latitude":-33.8678,
   "longitude":151.2073,
   "accuracy":4
 },
 {
   "postcode":1030,
   "place_name":"Sydney",
   "state_name":"New South Wales",
   "state_code":"NSW",
   "latitude":-33.8678,
   "longitude":151.2073,
   "accuracy":4
 },
 {
   "postcode":1031,
   "place_name":"Sydney",
   "state_name":"New South Wales",
   "state_code":"NSW",
   "latitude":-33.8678,
   "longitude":151.2073,
   "accuracy":4
 },
 {
   "postcode":1032,
   "place_name":"Sydney",
   "state_name":"New South Wales",
   "state_code":"NSW",
   "latitude":-33.8678,
   "longitude":151.2073,
   "accuracy":4
 },
 {
   "postcode":1033,
   "place_name":"Sydney",
   "state_name":"New South Wales",
   "state_code":"NSW",
   "latitude":-33.8678,
   "longitude":151.2073,
   "accuracy":4
 },
 {
   "postcode":1034,
   "place_name":"Sydney",
   "state_name":"New South Wales",
   "state_code":"NSW",
   "latitude":-33.8678,
   "longitude":151.2073,
   "accuracy":4
 },
 {
   "postcode":1035,
   "place_name":"Sydney",
   "state_name":"New South Wales",
   "state_code":"NSW",
   "latitude":-33.8678,
   "longitude":151.2073,
   "accuracy":4
 },
 {
   "postcode":1036,
   "place_name":"Sydney",
   "state_name":"New South Wales",
   "state_code":"NSW",
   "latitude":-33.8678,
   "longitude":151.2073,
   "accuracy":4
 },
 {
   "postcode":1037,
   "place_name":"Sydney",
   "state_name":"New South Wales",
   "state_code":"NSW",
   "latitude":-33.8678,
   "longitude":151.2073,
   "accuracy":4
 },
 {
   "postcode":1038,
   "place_name":"Sydney",
   "state_name":"New South Wales",
   "state_code":"NSW",
   "latitude":-33.8678,
   "longitude":151.2073,
   "accuracy":4
 },
 {
   "postcode":1039,
   "place_name":"Sydney",
   "state_name":"New South Wales",
   "state_code":"NSW",
   "latitude":-33.8678,
   "longitude":151.2073,
   "accuracy":4
 },
 {
   "postcode":1040,
   "place_name":"Sydney",
   "state_name":"New South Wales",
   "state_code":"NSW",
   "latitude":-33.8678,
   "longitude":151.2073,
   "accuracy":4
 },
 {
   "postcode":1041,
   "place_name":"Sydney",
   "state_name":"New South Wales",
   "state_code":"NSW",
   "latitude":-33.8678,
   "longitude":151.2073,
   "accuracy":4
 },
 {
   "postcode":1042,
   "place_name":"Sydney",
   "state_name":"New South Wales",
   "state_code":"NSW",
   "latitude":-33.8678,
   "longitude":151.2073,
   "accuracy":4
 },
 {
   "postcode":1043,
   "place_name":"Sydney",
   "state_name":"New South Wales",
   "state_code":"NSW",
   "latitude":-33.8678,
   "longitude":151.2073,
   "accuracy":4
 },
 {
   "postcode":1044,
   "place_name":"Sydney",
   "state_name":"New South Wales",
   "state_code":"NSW",
   "latitude":-33.8678,
   "longitude":151.2073,
   "accuracy":4
 },
 {
   "postcode":1045,
   "place_name":"Sydney",
   "state_name":"New South Wales",
   "state_code":"NSW",
   "latitude":-33.8678,
   "longitude":151.2073,
   "accuracy":4
 },
 {
   "postcode":1046,
   "place_name":"Sydney",
   "state_name":"New South Wales",
   "state_code":"NSW",
   "latitude":-33.8678,
   "longitude":151.2073,
   "accuracy":4
 },
 {
   "postcode":1100,
   "place_name":"Sydney",
   "state_name":"New South Wales",
   "state_code":"NSW",
   "latitude":-33.8678,
   "longitude":151.2073,
   "accuracy":4
 },
 {
   "postcode":1101,
   "place_name":"Sydney",
   "state_name":"New South Wales",
   "state_code":"NSW",
   "latitude":-33.8678,
   "longitude":151.2073,
   "accuracy":4
 },
 {
   "postcode":1105,
   "place_name":"Sydney",
   "state_name":"New South Wales",
   "state_code":"NSW",
   "latitude":-33.8678,
   "longitude":151.2073,
   "accuracy":4
 },
 {
   "postcode":1106,
   "place_name":"Sydney",
   "state_name":"New South Wales",
   "state_code":"NSW",
   "latitude":-33.8678,
   "longitude":151.2073,
   "accuracy":4
 },
 {
   "postcode":1107,
   "place_name":"Sydney",
   "state_name":"New South Wales",
   "state_code":"NSW",
   "latitude":-33.8678,
   "longitude":151.2073,
   "accuracy":4
 },
 {
   "postcode":1108,
   "place_name":"Sydney",
   "state_name":"New South Wales",
   "state_code":"NSW",
   "latitude":-33.8678,
   "longitude":151.2073,
   "accuracy":4
 },
 {
   "postcode":1109,
   "place_name":"Sydney",
   "state_name":"New South Wales",
   "state_code":"NSW",
   "latitude":-33.8678,
   "longitude":151.2073,
   "accuracy":4
 },
 {
   "postcode":1110,
   "place_name":"Sydney",
   "state_name":"New South Wales",
   "state_code":"NSW",
   "latitude":-33.8678,
   "longitude":151.2073,
   "accuracy":4
 },
 {
   "postcode":1112,
   "place_name":"Sydney",
   "state_name":"New South Wales",
   "state_code":"NSW",
   "latitude":-33.8678,
   "longitude":151.2073,
   "accuracy":4
 },
 {
   "postcode":1113,
   "place_name":"Sydney",
   "state_name":"New South Wales",
   "state_code":"NSW",
   "latitude":-33.8678,
   "longitude":151.2073,
   "accuracy":4
 },
 {
   "postcode":1114,
   "place_name":"Sydney",
   "state_name":"New South Wales",
   "state_code":"NSW",
   "latitude":-33.8678,
   "longitude":151.2073,
   "accuracy":4
 },
 {
   "postcode":1115,
   "place_name":"Sydney",
   "state_name":"New South Wales",
   "state_code":"NSW",
   "latitude":-33.8678,
   "longitude":151.2073,
   "accuracy":4
 },
 {
   "postcode":1116,
   "place_name":"Sydney",
   "state_name":"New South Wales",
   "state_code":"NSW",
   "latitude":-33.8678,
   "longitude":151.2073,
   "accuracy":4
 },
 {
   "postcode":1117,
   "place_name":"Sydney",
   "state_name":"New South Wales",
   "state_code":"NSW",
   "latitude":-33.8678,
   "longitude":151.2073,
   "accuracy":4
 },
 {
   "postcode":1118,
   "place_name":"Sydney",
   "state_name":"New South Wales",
   "state_code":"NSW",
   "latitude":-33.8678,
   "longitude":151.2073,
   "accuracy":4
 },
 {
   "postcode":1119,
   "place_name":"Sydney",
   "state_name":"New South Wales",
   "state_code":"NSW",
   "latitude":-33.8678,
   "longitude":151.2073,
   "accuracy":4
 },
 {
   "postcode":1120,
   "place_name":"Sydney",
   "state_name":"New South Wales",
   "state_code":"NSW",
   "latitude":-33.8678,
   "longitude":151.2073,
   "accuracy":4
 },
 {
   "postcode":1121,
   "place_name":"Sydney",
   "state_name":"New South Wales",
   "state_code":"NSW",
   "latitude":-33.8678,
   "longitude":151.2073,
   "accuracy":4
 },
 {
   "postcode":1122,
   "place_name":"Sydney",
   "state_name":"New South Wales",
   "state_code":"NSW",
   "latitude":-33.8678,
   "longitude":151.2073,
   "accuracy":4
 },
 {
   "postcode":1123,
   "place_name":"Sydney",
   "state_name":"New South Wales",
   "state_code":"NSW",
   "latitude":-33.8678,
   "longitude":151.2073,
   "accuracy":4
 },
 {
   "postcode":1124,
   "place_name":"Sydney",
   "state_name":"New South Wales",
   "state_code":"NSW",
   "latitude":-33.8678,
   "longitude":151.2073,
   "accuracy":4
 },
 {
   "postcode":1125,
   "place_name":"Sydney",
   "state_name":"New South Wales",
   "state_code":"NSW",
   "latitude":-33.8678,
   "longitude":151.2073,
   "accuracy":4
 },
 {
   "postcode":1126,
   "place_name":"Sydney",
   "state_name":"New South Wales",
   "state_code":"NSW",
   "latitude":-33.8678,
   "longitude":151.2073,
   "accuracy":4
 },
 {
   "postcode":1127,
   "place_name":"Sydney",
   "state_name":"New South Wales",
   "state_code":"NSW",
   "latitude":-33.8678,
   "longitude":151.2073,
   "accuracy":4
 },
 {
   "postcode":1128,
   "place_name":"Sydney",
   "state_name":"New South Wales",
   "state_code":"NSW",
   "latitude":-33.8678,
   "longitude":151.2073,
   "accuracy":4
 },
 {
   "postcode":1129,
   "place_name":"Sydney",
   "state_name":"New South Wales",
   "state_code":"NSW",
   "latitude":-33.8678,
   "longitude":151.2073,
   "accuracy":4
 },
 {
   "postcode":1130,
   "place_name":"Sydney",
   "state_name":"New South Wales",
   "state_code":"NSW",
   "latitude":-33.8678,
   "longitude":151.2073,
   "accuracy":4
 },
 {
   "postcode":1131,
   "place_name":"Sydney",
   "state_name":"New South Wales",
   "state_code":"NSW",
   "latitude":-33.8678,
   "longitude":151.2073,
   "accuracy":4
 },
 {
   "postcode":1132,
   "place_name":"Sydney",
   "state_name":"New South Wales",
   "state_code":"NSW",
   "latitude":-33.8678,
   "longitude":151.2073,
   "accuracy":4
 },
 {
   "postcode":1133,
   "place_name":"Sydney",
   "state_name":"New South Wales",
   "state_code":"NSW",
   "latitude":-33.8678,
   "longitude":151.2073,
   "accuracy":4
 },
 {
   "postcode":1134,
   "place_name":"Sydney",
   "state_name":"New South Wales",
   "state_code":"NSW",
   "latitude":-33.8678,
   "longitude":151.2073,
   "accuracy":4
 },
 {
   "postcode":1135,
   "place_name":"Sydney",
   "state_name":"New South Wales",
   "state_code":"NSW",
   "latitude":-33.8678,
   "longitude":151.2073,
   "accuracy":4
 },
 {
   "postcode":1136,
   "place_name":"Sydney",
   "state_name":"New South Wales",
   "state_code":"NSW",
   "latitude":-33.8678,
   "longitude":151.2073,
   "accuracy":4
 },
 {
   "postcode":1137,
   "place_name":"Sydney",
   "state_name":"New South Wales",
   "state_code":"NSW",
   "latitude":-33.8678,
   "longitude":151.2073,
   "accuracy":4
 },
 {
   "postcode":1138,
   "place_name":"Sydney",
   "state_name":"New South Wales",
   "state_code":"NSW",
   "latitude":-33.8678,
   "longitude":151.2073,
   "accuracy":4
 },
 {
   "postcode":1139,
   "place_name":"Sydney",
   "state_name":"New South Wales",
   "state_code":"NSW",
   "latitude":-33.8678,
   "longitude":151.2073,
   "accuracy":4
 },
 {
   "postcode":1140,
   "place_name":"Sydney",
   "state_name":"New South Wales",
   "state_code":"NSW",
   "latitude":-33.8678,
   "longitude":151.2073,
   "accuracy":4
 },
 {
   "postcode":1141,
   "place_name":"Sydney",
   "state_name":"New South Wales",
   "state_code":"NSW",
   "latitude":-33.8678,
   "longitude":151.2073,
   "accuracy":4
 },
 {
   "postcode":1142,
   "place_name":"Sydney",
   "state_name":"New South Wales",
   "state_code":"NSW",
   "latitude":-33.8678,
   "longitude":151.2073,
   "accuracy":4
 },
 {
   "postcode":1143,
   "place_name":"Sydney",
   "state_name":"New South Wales",
   "state_code":"NSW",
   "latitude":-33.8678,
   "longitude":151.2073,
   "accuracy":4
 },
 {
   "postcode":1144,
   "place_name":"Sydney",
   "state_name":"New South Wales",
   "state_code":"NSW",
   "latitude":-33.8678,
   "longitude":151.2073,
   "accuracy":4
 },
 {
   "postcode":1145,
   "place_name":"Sydney",
   "state_name":"New South Wales",
   "state_code":"NSW",
   "latitude":-33.8678,
   "longitude":151.2073,
   "accuracy":4
 },
 {
   "postcode":1146,
   "place_name":"Sydney",
   "state_name":"New South Wales",
   "state_code":"NSW",
   "latitude":-33.8678,
   "longitude":151.2073,
   "accuracy":4
 },
 {
   "postcode":1147,
   "place_name":"Sydney",
   "state_name":"New South Wales",
   "state_code":"NSW",
   "latitude":-33.8678,
   "longitude":151.2073,
   "accuracy":4
 },
 {
   "postcode":1148,
   "place_name":"Sydney",
   "state_name":"New South Wales",
   "state_code":"NSW",
   "latitude":-33.8678,
   "longitude":151.2073,
   "accuracy":4
 },
 {
   "postcode":1149,
   "place_name":"Sydney",
   "state_name":"New South Wales",
   "state_code":"NSW",
   "latitude":-33.8678,
   "longitude":151.2073,
   "accuracy":4
 },
 {
   "postcode":1150,
   "place_name":"Sydney",
   "state_name":"New South Wales",
   "state_code":"NSW",
   "latitude":-33.8678,
   "longitude":151.2073,
   "accuracy":4
 },
 {
   "postcode":1151,
   "place_name":"Sydney",
   "state_name":"New South Wales",
   "state_code":"NSW",
   "latitude":-33.8678,
   "longitude":151.2073,
   "accuracy":4
 },
 {
   "postcode":1152,
   "place_name":"Sydney",
   "state_name":"New South Wales",
   "state_code":"NSW",
   "latitude":-33.8678,
   "longitude":151.2073,
   "accuracy":4
 },
 {
   "postcode":1153,
   "place_name":"Sydney",
   "state_name":"New South Wales",
   "state_code":"NSW",
   "latitude":-33.8678,
   "longitude":151.2073,
   "accuracy":4
 },
 {
   "postcode":1154,
   "place_name":"Sydney",
   "state_name":"New South Wales",
   "state_code":"NSW",
   "latitude":-33.8678,
   "longitude":151.2073,
   "accuracy":4
 },
 {
   "postcode":1155,
   "place_name":"Sydney",
   "state_name":"New South Wales",
   "state_code":"NSW",
   "latitude":-33.8678,
   "longitude":151.2073,
   "accuracy":4
 },
 {
   "postcode":1156,
   "place_name":"Sydney",
   "state_name":"New South Wales",
   "state_code":"NSW",
   "latitude":-33.8678,
   "longitude":151.2073,
   "accuracy":4
 },
 {
   "postcode":1157,
   "place_name":"Sydney",
   "state_name":"New South Wales",
   "state_code":"NSW",
   "latitude":-33.8678,
   "longitude":151.2073,
   "accuracy":4
 },
 {
   "postcode":1158,
   "place_name":"Sydney",
   "state_name":"New South Wales",
   "state_code":"NSW",
   "latitude":-33.8678,
   "longitude":151.2073,
   "accuracy":4
 },
 {
   "postcode":1159,
   "place_name":"Sydney",
   "state_name":"New South Wales",
   "state_code":"NSW",
   "latitude":-33.8678,
   "longitude":151.2073,
   "accuracy":4
 },
 {
   "postcode":1160,
   "place_name":"Sydney",
   "state_name":"New South Wales",
   "state_code":"NSW",
   "latitude":-33.8678,
   "longitude":151.2073,
   "accuracy":4
 },
 {
   "postcode":1161,
   "place_name":"Sydney",
   "state_name":"New South Wales",
   "state_code":"NSW",
   "latitude":-33.8678,
   "longitude":151.2073,
   "accuracy":4
 },
 {
   "postcode":1162,
   "place_name":"Sydney",
   "state_name":"New South Wales",
   "state_code":"NSW",
   "latitude":-33.8678,
   "longitude":151.2073,
   "accuracy":4
 },
 {
   "postcode":1163,
   "place_name":"Sydney",
   "state_name":"New South Wales",
   "state_code":"NSW",
   "latitude":-33.8678,
   "longitude":151.2073,
   "accuracy":4
 },
 {
   "postcode":1164,
   "place_name":"Sydney",
   "state_name":"New South Wales",
   "state_code":"NSW",
   "latitude":-33.8678,
   "longitude":151.2073,
   "accuracy":4
 },
 {
   "postcode":1165,
   "place_name":"Sydney",
   "state_name":"New South Wales",
   "state_code":"NSW",
   "latitude":-33.8678,
   "longitude":151.2073,
   "accuracy":4
 },
 {
   "postcode":1166,
   "place_name":"Sydney",
   "state_name":"New South Wales",
   "state_code":"NSW",
   "latitude":-33.8678,
   "longitude":151.2073,
   "accuracy":4
 },
 {
   "postcode":1167,
   "place_name":"Sydney",
   "state_name":"New South Wales",
   "state_code":"NSW",
   "latitude":-33.8678,
   "longitude":151.2073,
   "accuracy":4
 },
 {
   "postcode":1168,
   "place_name":"Sydney",
   "state_name":"New South Wales",
   "state_code":"NSW",
   "latitude":-33.8678,
   "longitude":151.2073,
   "accuracy":4
 },
 {
   "postcode":1169,
   "place_name":"Sydney",
   "state_name":"New South Wales",
   "state_code":"NSW",
   "latitude":-33.8678,
   "longitude":151.2073,
   "accuracy":4
 },
 {
   "postcode":1170,
   "place_name":"Sydney",
   "state_name":"New South Wales",
   "state_code":"NSW",
   "latitude":-33.8678,
   "longitude":151.2073,
   "accuracy":4
 },
 {
   "postcode":1171,
   "place_name":"Sydney",
   "state_name":"New South Wales",
   "state_code":"NSW",
   "latitude":-33.8678,
   "longitude":151.2073,
   "accuracy":4
 },
 {
   "postcode":1172,
   "place_name":"Sydney",
   "state_name":"New South Wales",
   "state_code":"NSW",
   "latitude":-33.8678,
   "longitude":151.2073,
   "accuracy":4
 },
 {
   "postcode":1173,
   "place_name":"Sydney",
   "state_name":"New South Wales",
   "state_code":"NSW",
   "latitude":-33.8678,
   "longitude":151.2073,
   "accuracy":4
 },
 {
   "postcode":1174,
   "place_name":"Sydney",
   "state_name":"New South Wales",
   "state_code":"NSW",
   "latitude":-33.8678,
   "longitude":151.2073,
   "accuracy":4
 },
 {
   "postcode":1175,
   "place_name":"Sydney",
   "state_name":"New South Wales",
   "state_code":"NSW",
   "latitude":-33.8678,
   "longitude":151.2073,
   "accuracy":4
 },
 {
   "postcode":1176,
   "place_name":"Sydney",
   "state_name":"New South Wales",
   "state_code":"NSW",
   "latitude":-33.8678,
   "longitude":151.2073,
   "accuracy":4
 },
 {
   "postcode":1177,
   "place_name":"Sydney",
   "state_name":"New South Wales",
   "state_code":"NSW",
   "latitude":-33.8678,
   "longitude":151.2073,
   "accuracy":4
 },
 {
   "postcode":1178,
   "place_name":"Sydney",
   "state_name":"New South Wales",
   "state_code":"NSW",
   "latitude":-33.8678,
   "longitude":151.2073,
   "accuracy":4
 },
 {
   "postcode":1179,
   "place_name":"Sydney",
   "state_name":"New South Wales",
   "state_code":"NSW",
   "latitude":-33.8678,
   "longitude":151.2073,
   "accuracy":4
 },
 {
   "postcode":1180,
   "place_name":"Sydney",
   "state_name":"New South Wales",
   "state_code":"NSW",
   "latitude":-33.8678,
   "longitude":151.2073,
   "accuracy":4
 },
 {
   "postcode":1181,
   "place_name":"Sydney",
   "state_name":"New South Wales",
   "state_code":"NSW",
   "latitude":-33.8678,
   "longitude":151.2073,
   "accuracy":4
 },
 {
   "postcode":1182,
   "place_name":"Sydney",
   "state_name":"New South Wales",
   "state_code":"NSW",
   "latitude":-33.8678,
   "longitude":151.2073,
   "accuracy":4
 },
 {
   "postcode":1183,
   "place_name":"Sydney",
   "state_name":"New South Wales",
   "state_code":"NSW",
   "latitude":-33.8678,
   "longitude":151.2073,
   "accuracy":4
 },
 {
   "postcode":1184,
   "place_name":"Sydney",
   "state_name":"New South Wales",
   "state_code":"NSW",
   "latitude":-33.8678,
   "longitude":151.2073,
   "accuracy":4
 },
 {
   "postcode":1185,
   "place_name":"Sydney",
   "state_name":"New South Wales",
   "state_code":"NSW",
   "latitude":-33.8678,
   "longitude":151.2073,
   "accuracy":4
 },
 {
   "postcode":1186,
   "place_name":"Sydney",
   "state_name":"New South Wales",
   "state_code":"NSW",
   "latitude":-33.8678,
   "longitude":151.2073,
   "accuracy":4
 },
 {
   "postcode":1187,
   "place_name":"Sydney",
   "state_name":"New South Wales",
   "state_code":"NSW",
   "latitude":-33.8678,
   "longitude":151.2073,
   "accuracy":4
 },
 {
   "postcode":1188,
   "place_name":"Sydney",
   "state_name":"New South Wales",
   "state_code":"NSW",
   "latitude":-33.8678,
   "longitude":151.2073,
   "accuracy":4
 },
 {
   "postcode":1189,
   "place_name":"Sydney",
   "state_name":"New South Wales",
   "state_code":"NSW",
   "latitude":-33.8678,
   "longitude":151.2073,
   "accuracy":4
 },
 {
   "postcode":1190,
   "place_name":"Sydney",
   "state_name":"New South Wales",
   "state_code":"NSW",
   "latitude":-33.8678,
   "longitude":151.2073,
   "accuracy":4
 },
 {
   "postcode":1191,
   "place_name":"Sydney",
   "state_name":"New South Wales",
   "state_code":"NSW",
   "latitude":-33.8678,
   "longitude":151.2073,
   "accuracy":4
 },
 {
   "postcode":1192,
   "place_name":"Sydney",
   "state_name":"New South Wales",
   "state_code":"NSW",
   "latitude":-33.8678,
   "longitude":151.2073,
   "accuracy":4
 },
 {
   "postcode":1193,
   "place_name":"Sydney",
   "state_name":"New South Wales",
   "state_code":"NSW",
   "latitude":-33.8678,
   "longitude":151.2073,
   "accuracy":4
 },
 {
   "postcode":1194,
   "place_name":"Sydney",
   "state_name":"New South Wales",
   "state_code":"NSW",
   "latitude":-33.8678,
   "longitude":151.2073,
   "accuracy":4
 },
 {
   "postcode":1195,
   "place_name":"Sydney",
   "state_name":"New South Wales",
   "state_code":"NSW",
   "latitude":-33.8678,
   "longitude":151.2073,
   "accuracy":4
 },
 {
   "postcode":1196,
   "place_name":"Sydney",
   "state_name":"New South Wales",
   "state_code":"NSW",
   "latitude":-33.8678,
   "longitude":151.2073,
   "accuracy":4
 },
 {
   "postcode":1197,
   "place_name":"Sydney",
   "state_name":"New South Wales",
   "state_code":"NSW",
   "latitude":-33.8678,
   "longitude":151.2073,
   "accuracy":4
 },
 {
   "postcode":1198,
   "place_name":"Sydney",
   "state_name":"New South Wales",
   "state_code":"NSW",
   "latitude":-33.8678,
   "longitude":151.2073,
   "accuracy":4
 },
 {
   "postcode":1199,
   "place_name":"Sydney",
   "state_name":"New South Wales",
   "state_code":"NSW",
   "latitude":-33.8678,
   "longitude":151.2073,
   "accuracy":4
 },
 {
   "postcode":1200,
   "place_name":"Sydney",
   "state_name":"New South Wales",
   "state_code":"NSW",
   "latitude":-33.8678,
   "longitude":151.2073,
   "accuracy":4
 },
 {
   "postcode":1201,
   "place_name":"Sydney",
   "state_name":"New South Wales",
   "state_code":"NSW",
   "latitude":-33.8678,
   "longitude":151.2073,
   "accuracy":4
 },
 {
   "postcode":1202,
   "place_name":"Sydney",
   "state_name":"New South Wales",
   "state_code":"NSW",
   "latitude":-33.8678,
   "longitude":151.2073,
   "accuracy":4
 },
 {
   "postcode":1203,
   "place_name":"Sydney",
   "state_name":"New South Wales",
   "state_code":"NSW",
   "latitude":-33.8678,
   "longitude":151.2073,
   "accuracy":4
 },
 {
   "postcode":1204,
   "place_name":"Sydney",
   "state_name":"New South Wales",
   "state_code":"NSW",
   "latitude":-33.8678,
   "longitude":151.2073,
   "accuracy":4
 },
 {
   "postcode":1205,
   "place_name":"Sydney",
   "state_name":"New South Wales",
   "state_code":"NSW",
   "latitude":-33.8678,
   "longitude":151.2073,
   "accuracy":4
 },
 {
   "postcode":1206,
   "place_name":"Sydney",
   "state_name":"New South Wales",
   "state_code":"NSW",
   "latitude":-33.8678,
   "longitude":151.2073,
   "accuracy":4
 },
 {
   "postcode":1207,
   "place_name":"Sydney",
   "state_name":"New South Wales",
   "state_code":"NSW",
   "latitude":-33.8678,
   "longitude":151.2073,
   "accuracy":4
 },
 {
   "postcode":1208,
   "place_name":"Haymarket",
   "state_name":"New South Wales",
   "state_code":"NSW",
   "latitude":-33.8787,
   "longitude":151.2053,
   "accuracy":4
 },
 {
   "postcode":1209,
   "place_name":"Australia Square",
   "state_name":"New South Wales",
   "state_code":"NSW",
   "latitude":-33.8691,
   "longitude":151.2071,
   "accuracy":1
 },
 {
   "postcode":1210,
   "place_name":"Australia Square",
   "state_name":"New South Wales",
   "state_code":"NSW",
   "latitude":-33.8707,
   "longitude":151.2068,
   "accuracy":1
 },
 {
   "postcode":1211,
   "place_name":"Australia Square",
   "state_name":"New South Wales",
   "state_code":"NSW",
   "latitude":-33.8707,
   "longitude":151.2068,
   "accuracy":1
 },
 {
   "postcode":1212,
   "place_name":"Australia Square",
   "state_name":"New South Wales",
   "state_code":"NSW",
   "latitude":-33.8707,
   "longitude":151.2068,
   "accuracy":1
 },
 {
   "postcode":1213,
   "place_name":"Australia Square",
   "state_name":"New South Wales",
   "state_code":"NSW",
   "latitude":-33.8707,
   "longitude":151.2068,
   "accuracy":1
 },
 {
   "postcode":1214,
   "place_name":"Australia Square",
   "state_name":"New South Wales",
   "state_code":"NSW",
   "latitude":-33.8707,
   "longitude":151.2068,
   "accuracy":1
 },
 {
   "postcode":1215,
   "place_name":"Australia Square",
   "state_name":"New South Wales",
   "state_code":"NSW",
   "latitude":-33.8707,
   "longitude":151.2068,
   "accuracy":1
 },
 {
   "postcode":1216,
   "place_name":"Grosvenor Place",
   "state_name":"New South Wales",
   "state_code":"NSW",
   "latitude":-33.8707,
   "longitude":151.2068,
   "accuracy":1
 },
 {
   "postcode":1217,
   "place_name":"Grosvenor Place",
   "state_name":"New South Wales",
   "state_code":"NSW",
   "latitude":-33.8707,
   "longitude":151.2068,
   "accuracy":1
 },
 {
   "postcode":1218,
   "place_name":"Grosvenor Place",
   "state_name":"New South Wales",
   "state_code":"NSW",
   "latitude":-33.8707,
   "longitude":151.2068,
   "accuracy":1
 },
 {
   "postcode":1219,
   "place_name":"Grosvenor Place",
   "state_name":"New South Wales",
   "state_code":"NSW",
   "latitude":-33.8707,
   "longitude":151.2068,
   "accuracy":1
 },
 {
   "postcode":1220,
   "place_name":"Grosvenor Place",
   "state_name":"New South Wales",
   "state_code":"NSW",
   "latitude":-33.8707,
   "longitude":151.2068,
   "accuracy":1
 },
 {
   "postcode":1221,
   "place_name":"Royal Exchange",
   "state_name":"New South Wales",
   "state_code":"NSW",
   "latitude":-33.8707,
   "longitude":151.2068,
   "accuracy":1
 },
 {
   "postcode":1222,
   "place_name":"Royal Exchange",
   "state_name":"New South Wales",
   "state_code":"NSW",
   "latitude":-33.8707,
   "longitude":151.2068,
   "accuracy":1
 },
 {
   "postcode":1223,
   "place_name":"Royal Exchange",
   "state_name":"New South Wales",
   "state_code":"NSW",
   "latitude":-33.8707,
   "longitude":151.2068,
   "accuracy":1
 },
 {
   "postcode":1224,
   "place_name":"Royal Exchange",
   "state_name":"New South Wales",
   "state_code":"NSW",
   "latitude":-33.8707,
   "longitude":151.2068,
   "accuracy":1
 },
 {
   "postcode":1225,
   "place_name":"Royal Exchange",
   "state_name":"New South Wales",
   "state_code":"NSW",
   "latitude":-33.8707,
   "longitude":151.2068,
   "accuracy":1
 },
 {
   "postcode":1226,
   "place_name":"Queen Victoria Building",
   "state_name":"New South Wales",
   "state_code":"NSW",
   "latitude":-33.8707,
   "longitude":151.2068,
   "accuracy":1
 },
 {
   "postcode":1227,
   "place_name":"Queen Victoria Building",
   "state_name":"New South Wales",
   "state_code":"NSW",
   "latitude":-33.8707,
   "longitude":151.2068,
   "accuracy":1
 },
 {
   "postcode":1228,
   "place_name":"Queen Victoria Building",
   "state_name":"New South Wales",
   "state_code":"NSW",
   "latitude":-33.8707,
   "longitude":151.2068,
   "accuracy":1
 },
 {
   "postcode":1229,
   "place_name":"Queen Victoria Building",
   "state_name":"New South Wales",
   "state_code":"NSW",
   "latitude":-33.8707,
   "longitude":151.2068,
   "accuracy":1
 },
 {
   "postcode":1230,
   "place_name":"Queen Victoria Building",
   "state_name":"New South Wales",
   "state_code":"NSW",
   "latitude":-33.8787,
   "longitude":151.2053,
   "accuracy":1
 },
 {
   "postcode":1231,
   "place_name":"Sydney South",
   "state_name":"New South Wales",
   "state_code":"NSW",
   "latitude":-33.8787,
   "longitude":151.2053,
   "accuracy":1
 },
 {
   "postcode":1232,
   "place_name":"Sydney South",
   "state_name":"New South Wales",
   "state_code":"NSW",
   "latitude":-33.8787,
   "longitude":151.2053,
   "accuracy":1
 },
 {
   "postcode":1233,
   "place_name":"Sydney South",
   "state_name":"New South Wales",
   "state_code":"NSW",
   "latitude":-33.8787,
   "longitude":151.2053,
   "accuracy":1
 },
 {
   "postcode":1234,
   "place_name":"Sydney South",
   "state_name":"New South Wales",
   "state_code":"NSW",
   "latitude":-33.8787,
   "longitude":151.2053,
   "accuracy":1
 },
 {
   "postcode":1235,
   "place_name":"Sydney South",
   "state_name":"New South Wales",
   "state_code":"NSW",
   "latitude":-33.8787,
   "longitude":151.2053,
   "accuracy":1
 },
 {
   "postcode":1236,
   "place_name":"Haymarket",
   "state_name":"New South Wales",
   "state_code":"NSW",
   "latitude":-33.8787,
   "longitude":151.2053,
   "accuracy":4
 },
 {
   "postcode":1237,
   "place_name":"Haymarket",
   "state_name":"New South Wales",
   "state_code":"NSW",
   "latitude":-33.8787,
   "longitude":151.2053,
   "accuracy":4
 },
 {
   "postcode":1238,
   "place_name":"Haymarket",
   "state_name":"New South Wales",
   "state_code":"NSW",
   "latitude":-33.8787,
   "longitude":151.2053,
   "accuracy":4
 },
 {
   "postcode":1239,
   "place_name":"Haymarket",
   "state_name":"New South Wales",
   "state_code":"NSW",
   "latitude":-33.8787,
   "longitude":151.2053,
   "accuracy":4
 },
 {
   "postcode":1240,
   "place_name":"Haymarket",
   "state_name":"New South Wales",
   "state_code":"NSW",
   "latitude":-33.8787,
   "longitude":151.2053,
   "accuracy":4
 },
 {
   "postcode":1291,
   "place_name":"Sydney",
   "state_name":"New South Wales",
   "state_code":"NSW",
   "latitude":-33.8678,
   "longitude":151.2073,
   "accuracy":4
 },
 {
   "postcode":1292,
   "place_name":"Sydney",
   "state_name":"New South Wales",
   "state_code":"NSW",
   "latitude":-33.8678,
   "longitude":151.2073,
   "accuracy":4
 },
 {
   "postcode":1293,
   "place_name":"Sydney",
   "state_name":"New South Wales",
   "state_code":"NSW",
   "latitude":-33.8678,
   "longitude":151.2073,
   "accuracy":4
 },
 {
   "postcode":1294,
   "place_name":"Sydney",
   "state_name":"New South Wales",
   "state_code":"NSW",
   "latitude":-33.8678,
   "longitude":151.2073,
   "accuracy":4
 },
 {
   "postcode":1295,
   "place_name":"Sydney",
   "state_name":"New South Wales",
   "state_code":"NSW",
   "latitude":-33.8678,
   "longitude":151.2073,
   "accuracy":4
 },
 {
   "postcode":1296,
   "place_name":"Sydney",
   "state_name":"New South Wales",
   "state_code":"NSW",
   "latitude":-33.8678,
   "longitude":151.2073,
   "accuracy":4
 },
 {
   "postcode":1297,
   "place_name":"Sydney",
   "state_name":"New South Wales",
   "state_code":"NSW",
   "latitude":-33.8678,
   "longitude":151.2073,
   "accuracy":4
 },
 {
   "postcode":1298,
   "place_name":"Sydney",
   "state_name":"New South Wales",
   "state_code":"NSW",
   "latitude":-33.8678,
   "longitude":151.2073,
   "accuracy":4
 },
 {
   "postcode":1299,
   "place_name":"Sydney",
   "state_name":"New South Wales",
   "state_code":"NSW",
   "latitude":-33.8678,
   "longitude":151.2073,
   "accuracy":4
 },
 {
   "postcode":1300,
   "place_name":"Darlinghurst",
   "state_name":"New South Wales",
   "state_code":"NSW",
   "latitude":-33.8794,
   "longitude":151.2193,
   "accuracy":4
 },
 {
   "postcode":1311,
   "place_name":"Eastern Suburbs Mc",
   "state_name":"New South Wales",
   "state_code":"NSW",
   "latitude":-33.8784,
   "longitude":151.2313,
   "accuracy":1
 },
 {
   "postcode":1312,
   "place_name":"Eastern Suburbs Mc",
   "state_name":"New South Wales",
   "state_code":"NSW",
   "latitude":-33.8784,
   "longitude":151.2313,
   "accuracy":1
 },
 {
   "postcode":1313,
   "place_name":"Eastern Suburbs Mc",
   "state_name":"New South Wales",
   "state_code":"NSW",
   "latitude":-33.8784,
   "longitude":151.2313,
   "accuracy":1
 },
 {
   "postcode":1314,
   "place_name":"Eastern Suburbs Mc",
   "state_name":"New South Wales",
   "state_code":"NSW",
   "latitude":-33.8784,
   "longitude":151.2313,
   "accuracy":1
 },
 {
   "postcode":1315,
   "place_name":"Eastern Suburbs Mc",
   "state_name":"New South Wales",
   "state_code":"NSW",
   "latitude":-33.8784,
   "longitude":151.2313,
   "accuracy":1
 },
 {
   "postcode":1316,
   "place_name":"Eastern Suburbs Mc",
   "state_name":"New South Wales",
   "state_code":"NSW",
   "latitude":-33.8784,
   "longitude":151.2313,
   "accuracy":1
 },
 {
   "postcode":1317,
   "place_name":"Eastern Suburbs Mc",
   "state_name":"New South Wales",
   "state_code":"NSW",
   "latitude":-33.8784,
   "longitude":151.2313,
   "accuracy":1
 },
 {
   "postcode":1318,
   "place_name":"Eastern Suburbs Mc",
   "state_name":"New South Wales",
   "state_code":"NSW",
   "latitude":-33.8784,
   "longitude":151.2313,
   "accuracy":1
 },
 {
   "postcode":1319,
   "place_name":"Eastern Suburbs Mc",
   "state_name":"New South Wales",
   "state_code":"NSW",
   "latitude":-33.8784,
   "longitude":151.2313,
   "accuracy":1
 },
 {
   "postcode":1320,
   "place_name":"Eastern Suburbs Mc",
   "state_name":"New South Wales",
   "state_code":"NSW",
   "latitude":-33.8784,
   "longitude":151.2313,
   "accuracy":1
 },
 {
   "postcode":1321,
   "place_name":"Eastern Suburbs Mc",
   "state_name":"New South Wales",
   "state_code":"NSW",
   "latitude":-33.8784,
   "longitude":151.2313,
   "accuracy":1
 },
 {
   "postcode":1322,
   "place_name":"Eastern Suburbs Mc",
   "state_name":"New South Wales",
   "state_code":"NSW",
   "latitude":-33.8784,
   "longitude":151.2313,
   "accuracy":1
 },
 {
   "postcode":1323,
   "place_name":"Eastern Suburbs Mc",
   "state_name":"New South Wales",
   "state_code":"NSW",
   "latitude":-33.8784,
   "longitude":151.2313,
   "accuracy":1
 },
 {
   "postcode":1324,
   "place_name":"Eastern Suburbs Mc",
   "state_name":"New South Wales",
   "state_code":"NSW",
   "latitude":-33.8784,
   "longitude":151.2313,
   "accuracy":1
 },
 {
   "postcode":1325,
   "place_name":"Eastern Suburbs Mc",
   "state_name":"New South Wales",
   "state_code":"NSW",
   "latitude":-33.8784,
   "longitude":151.2313,
   "accuracy":1
 },
 {
   "postcode":1326,
   "place_name":"Eastern Suburbs Mc",
   "state_name":"New South Wales",
   "state_code":"NSW",
   "latitude":-33.8784,
   "longitude":151.2313,
   "accuracy":1
 },
 {
   "postcode":1327,
   "place_name":"Eastern Suburbs Mc",
   "state_name":"New South Wales",
   "state_code":"NSW",
   "latitude":-33.8784,
   "longitude":151.2313,
   "accuracy":1
 },
 {
   "postcode":1328,
   "place_name":"Eastern Suburbs Mc",
   "state_name":"New South Wales",
   "state_code":"NSW",
   "latitude":-33.8784,
   "longitude":151.2313,
   "accuracy":1
 },
 {
   "postcode":1329,
   "place_name":"Eastern Suburbs Mc",
   "state_name":"New South Wales",
   "state_code":"NSW",
   "latitude":-33.8784,
   "longitude":151.2313,
   "accuracy":1
 },
 {
   "postcode":1330,
   "place_name":"Eastern Suburbs Mc",
   "state_name":"New South Wales",
   "state_code":"NSW",
   "latitude":-33.8693,
   "longitude":151.2248,
   "accuracy":1
 },
 {
   "postcode":1331,
   "place_name":"Eastern Suburbs Mc",
   "state_name":"New South Wales",
   "state_code":"NSW",
   "latitude":-33.8693,
   "longitude":151.2248,
   "accuracy":1
 },
 {
   "postcode":1332,
   "place_name":"Eastern Suburbs Mc",
   "state_name":"New South Wales",
   "state_code":"NSW",
   "latitude":-33.8693,
   "longitude":151.2248,
   "accuracy":1
 },
 {
   "postcode":1333,
   "place_name":"Eastern Suburbs Mc",
   "state_name":"New South Wales",
   "state_code":"NSW",
   "latitude":-33.8693,
   "longitude":151.2248,
   "accuracy":1
 },
 {
   "postcode":1334,
   "place_name":"Eastern Suburbs Mc",
   "state_name":"New South Wales",
   "state_code":"NSW",
   "latitude":-33.8693,
   "longitude":151.2248,
   "accuracy":1
 },
 {
   "postcode":1335,
   "place_name":"Potts Point",
   "state_name":"New South Wales",
   "state_code":"NSW",
   "latitude":-33.8713,
   "longitude":151.222,
   "accuracy":4
 },
 {
   "postcode":1340,
   "place_name":"Kings Cross",
   "state_name":"New South Wales",
   "state_code":"NSW",
   "latitude":-33.875,
   "longitude":151.2223,
   "accuracy":4
 },
 {
   "postcode":1350,
   "place_name":"Woollahra",
   "state_name":"New South Wales",
   "state_code":"NSW",
   "latitude":-33.8878,
   "longitude":151.2368,
   "accuracy":4
 },
 {
   "postcode":1355,
   "place_name":"Bondi Junction",
   "state_name":"New South Wales",
   "state_code":"NSW",
   "latitude":-33.8928,
   "longitude":151.2472,
   "accuracy":4
 },
 {
   "postcode":1360,
   "place_name":"Double Bay",
   "state_name":"New South Wales",
   "state_code":"NSW",
   "latitude":-33.8778,
   "longitude":151.2435,
   "accuracy":4
 },
 {
   "postcode":1363,
   "place_name":"Moore Park",
   "state_name":"New South Wales",
   "state_code":"NSW",
   "latitude":-33.9014,
   "longitude":151.2138,
   "accuracy":4
 },
 {
   "postcode":1391,
   "place_name":"Eastern Suburbs Mc",
   "state_name":"New South Wales",
   "state_code":"NSW",
   "latitude":-33.8784,
   "longitude":151.2313,
   "accuracy":1
 },
 {
   "postcode":1401,
   "place_name":"Broadway",
   "state_name":"New South Wales",
   "state_code":"NSW",
   "latitude":-33.9475,
   "longitude":151.1522,
   "accuracy":1
 },
 {
   "postcode":1416,
   "place_name":"Southern Suburbs Mc",
   "state_name":"New South Wales",
   "state_code":"NSW",
   "latitude":-33.9475,
   "longitude":151.1522,
   "accuracy":1
 },
 {
   "postcode":1419,
   "place_name":"Southern Suburbs Mc",
   "state_name":"New South Wales",
   "state_code":"NSW",
   "latitude":-33.9475,
   "longitude":151.1522,
   "accuracy":1
 },
 {
   "postcode":1420,
   "place_name":"Strawberry Hills",
   "state_name":"New South Wales",
   "state_code":"NSW",
   "latitude":-33.9475,
   "longitude":151.1522,
   "accuracy":1
 },
 {
   "postcode":1421,
   "place_name":"Strawberry Hills",
   "state_name":"New South Wales",
   "state_code":"NSW",
   "latitude":-33.9475,
   "longitude":151.1522,
   "accuracy":1
 },
 {
   "postcode":1422,
   "place_name":"Strawberry Hills",
   "state_name":"New South Wales",
   "state_code":"NSW",
   "latitude":-33.9475,
   "longitude":151.1522,
   "accuracy":1
 },
 {
   "postcode":1423,
   "place_name":"Strawberry Hills",
   "state_name":"New South Wales",
   "state_code":"NSW",
   "latitude":-33.9475,
   "longitude":151.1522,
   "accuracy":1
 },
 {
   "postcode":1424,
   "place_name":"Strawberry Hills",
   "state_name":"New South Wales",
   "state_code":"NSW",
   "latitude":-33.9475,
   "longitude":151.1522,
   "accuracy":1
 },
 {
   "postcode":1425,
   "place_name":"Strawberry Hills",
   "state_name":"New South Wales",
   "state_code":"NSW",
   "latitude":-33.9475,
   "longitude":151.1522,
   "accuracy":1
 },
 {
   "postcode":1426,
   "place_name":"Strawberry Hills",
   "state_name":"New South Wales",
   "state_code":"NSW",
   "latitude":-33.9475,
   "longitude":151.1522,
   "accuracy":1
 },
 {
   "postcode":1427,
   "place_name":"Strawberry Hills",
   "state_name":"New South Wales",
   "state_code":"NSW",
   "latitude":-33.9475,
   "longitude":151.1522,
   "accuracy":1
 },
 {
   "postcode":1428,
   "place_name":"Strawberry Hills",
   "state_name":"New South Wales",
   "state_code":"NSW",
   "latitude":-33.9475,
   "longitude":151.1522,
   "accuracy":1
 },
 {
   "postcode":1429,
   "place_name":"Strawberry Hills",
   "state_name":"New South Wales",
   "state_code":"NSW",
   "latitude":-33.9475,
   "longitude":151.1522,
   "accuracy":1
 },
 {
   "postcode":1430,
   "place_name":"Eveleigh",
   "state_name":"New South Wales",
   "state_code":"NSW",
   "latitude":-33.8956,
   "longitude":151.1924,
   "accuracy":4
 },
 {
   "postcode":1435,
   "place_name":"Alexandria",
   "state_name":"New South Wales",
   "state_code":"NSW",
   "latitude":-33.9022,
   "longitude":151.2004,
   "accuracy":4
 },
 {
   "postcode":1440,
   "place_name":"Waterloo",
   "state_name":"New South Wales",
   "state_code":"NSW",
   "latitude":-33.9167,
   "longitude":151.2,
   "accuracy":4
 },
 {
   "postcode":1445,
   "place_name":"Rosebery",
   "state_name":"New South Wales",
   "state_code":"NSW",
   "latitude":-33.9167,
   "longitude":151.2,
   "accuracy":4
 },
 {
   "postcode":1450,
   "place_name":"Camperdown",
   "state_name":"New South Wales",
   "state_code":"NSW",
   "latitude":-33.8897,
   "longitude":151.1764,
   "accuracy":4
 },
 {
   "postcode":1455,
   "place_name":"Botany",
   "state_name":"New South Wales",
   "state_code":"NSW",
   "latitude":-33.946,
   "longitude":151.1959,
   "accuracy":4
 },
 {
   "postcode":1460,
   "place_name":"Mascot",
   "state_name":"New South Wales",
   "state_code":"NSW",
   "latitude":-33.926,
   "longitude":151.1935,
   "accuracy":4
 },
 {
   "postcode":1465,
   "place_name":"Kensington",
   "state_name":"New South Wales",
   "state_code":"NSW",
   "latitude":-33.9202,
   "longitude":151.2224,
   "accuracy":4
 },
 {
   "postcode":1466,
   "place_name":"Unsw Sydney",
   "state_name":"New South Wales",
   "state_code":"NSW",
   "latitude":-33.925,
   "longitude":151.2083,
   "accuracy":1
 },
 {
   "postcode":1470,
   "place_name":"Drummoyne",
   "state_name":"New South Wales",
   "state_code":"NSW",
   "latitude":-33.8524,
   "longitude":151.1549,
   "accuracy":4
 },
 {
   "postcode":1475,
   "place_name":"Marrickville",
   "state_name":"New South Wales",
   "state_code":"NSW",
   "latitude":-33.9032,
   "longitude":151.1518,
   "accuracy":4
 },
 {
   "postcode":1480,
   "place_name":"Kingsgrove",
   "state_name":"New South Wales",
   "state_code":"NSW",
   "latitude":-33.9393,
   "longitude":151.0993,
   "accuracy":4
 },
 {
   "postcode":1481,
   "place_name":"Hurstville Bc",
   "state_name":"New South Wales",
   "state_code":"NSW",
   "latitude":-33.9687,
   "longitude":151.1109,
   "accuracy":1
 },
 {
   "postcode":1484,
   "place_name":"Kingsgrove DC",
   "state_name":"New South Wales",
   "state_code":"NSW",
   "latitude":-33.9687,
   "longitude":151.1109,
   "accuracy":1
 },
 {
   "postcode":1485,
   "place_name":"Kogarah",
   "state_name":"New South Wales",
   "state_code":"NSW",
   "latitude":-33.9833,
   "longitude":151.1167,
   "accuracy":4
 },
 {
   "postcode":1487,
   "place_name":"Kogarah",
   "state_name":"New South Wales",
   "state_code":"NSW",
   "latitude":-33.9833,
   "longitude":151.1167,
   "accuracy":4
 },
 {
   "postcode":1490,
   "place_name":"Miranda",
   "state_name":"New South Wales",
   "state_code":"NSW",
   "latitude":-34.0386,
   "longitude":151.1001,
   "accuracy":4
 },
 {
   "postcode":1493,
   "place_name":"Hurstville",
   "state_name":"New South Wales",
   "state_code":"NSW",
   "latitude":-33.9799,
   "longitude":151.0903,
   "accuracy":4
 },
 {
   "postcode":1495,
   "place_name":"Caringbah",
   "state_name":"New South Wales",
   "state_code":"NSW",
   "latitude":-34.0473,
   "longitude":151.1205,
   "accuracy":4
 },
 {
   "postcode":1499,
   "place_name":"Sutherland",
   "state_name":"New South Wales",
   "state_code":"NSW",
   "latitude":-34.031,
   "longitude":151.0553,
   "accuracy":4
 },
 {
   "postcode":1515,
   "place_name":"West Chatswood",
   "state_name":"New South Wales",
   "state_code":"NSW",
   "latitude":-33.794,
   "longitude":151.1649,
   "accuracy":4
 },
 {
   "postcode":1560,
   "place_name":"Northbridge",
   "state_name":"New South Wales",
   "state_code":"NSW",
   "latitude":-33.8094,
   "longitude":151.2222,
   "accuracy":4
 },
 {
   "postcode":1565,
   "place_name":"Milsons Point",
   "state_name":"New South Wales",
   "state_code":"NSW",
   "latitude":-33.846,
   "longitude":151.2119,
   "accuracy":4
 },
 {
   "postcode":1570,
   "place_name":"Artarmon",
   "state_name":"New South Wales",
   "state_code":"NSW",
   "latitude":-33.8167,
   "longitude":151.1833,
   "accuracy":4
 },
 {
   "postcode":1582,
   "place_name":"Crows Nest",
   "state_name":"New South Wales",
   "state_code":"NSW",
   "latitude":-33.8265,
   "longitude":151.2019,
   "accuracy":4
 },
 {
   "postcode":1585,
   "place_name":"Crows Nest",
   "state_name":"New South Wales",
   "state_code":"NSW",
   "latitude":-33.8265,
   "longitude":151.2019,
   "accuracy":4
 },
 {
   "postcode":1590,
   "place_name":"St Leonards",
   "state_name":"New South Wales",
   "state_code":"NSW",
   "latitude":-33.8234,
   "longitude":151.1984,
   "accuracy":4
 },
 {
   "postcode":1595,
   "place_name":"Lane Cove",
   "state_name":"New South Wales",
   "state_code":"NSW",
   "latitude":-33.8157,
   "longitude":151.1668,
   "accuracy":4
 },
 {
   "postcode":1597,
   "place_name":"Lane Cove",
   "state_name":"New South Wales",
   "state_code":"NSW",
   "latitude":-33.8157,
   "longitude":151.1668,
   "accuracy":4
 },
 {
   "postcode":1602,
   "place_name":"Lane Cove DC",
   "state_name":"New South Wales",
   "state_code":"NSW",
   "latitude":-33.7554,
   "longitude":151.1998,
   "accuracy":1
 },
 {
   "postcode":1630,
   "place_name":"Hornsby",
   "state_name":"New South Wales",
   "state_code":"NSW",
   "latitude":-33.7024,
   "longitude":151.0993,
   "accuracy":4
 },
 {
   "postcode":1635,
   "place_name":"Hornsby Westfield",
   "state_name":"New South Wales",
   "state_code":"NSW",
   "latitude":-33.7,
   "longitude":151.1,
   "accuracy":1
 },
 {
   "postcode":1639,
   "place_name":"Frenchs Forest",
   "state_name":"New South Wales",
   "state_code":"NSW",
   "latitude":-33.7482,
   "longitude":151.2232,
   "accuracy":4
 },
 {
   "postcode":1640,
   "place_name":"Frenchs Forest",
   "state_name":"New South Wales",
   "state_code":"NSW",
   "latitude":-33.7482,
   "longitude":151.2232,
   "accuracy":4
 },
 {
   "postcode":1655,
   "place_name":"Manly",
   "state_name":"New South Wales",
   "state_code":"NSW",
   "latitude":-33.798,
   "longitude":151.2883,
   "accuracy":4
 },
 {
   "postcode":1658,
   "place_name":"Mona Vale",
   "state_name":"New South Wales",
   "state_code":"NSW",
   "latitude":-33.6776,
   "longitude":151.3031,
   "accuracy":4
 },
 {
   "postcode":1660,
   "place_name":"Mona Vale",
   "state_name":"New South Wales",
   "state_code":"NSW",
   "latitude":-33.6776,
   "longitude":151.3031,
   "accuracy":4
 },
 {
   "postcode":1670,
   "place_name":"North Ryde Bc",
   "state_name":"New South Wales",
   "state_code":"NSW",
   "latitude":-33.8151,
   "longitude":151.1288,
   "accuracy":1
 },
 {
   "postcode":1671,
   "place_name":"North Ryde",
   "state_name":"New South Wales",
   "state_code":"NSW",
   "latitude":-33.7968,
   "longitude":151.1244,
   "accuracy":4
 },
 {
   "postcode":1675,
   "place_name":"Gladesville",
   "state_name":"New South Wales",
   "state_code":"NSW",
   "latitude":-33.8333,
   "longitude":151.1333,
   "accuracy":4
 },
 {
   "postcode":1680,
   "place_name":"Ryde",
   "state_name":"New South Wales",
   "state_code":"NSW",
   "latitude":-33.8188,
   "longitude":151.1062,
   "accuracy":4
 },
 {
   "postcode":1685,
   "place_name":"West Ryde",
   "state_name":"New South Wales",
   "state_code":"NSW",
   "latitude":-33.8054,
   "longitude":151.0739,
   "accuracy":4
 },
 {
   "postcode":1690,
   "place_name":"Northern Suburbs Mc",
   "state_name":"New South Wales",
   "state_code":"NSW",
   "latitude":-33.7554,
   "longitude":151.1998,
   "accuracy":1
 },
 {
   "postcode":1691,
   "place_name":"Northern Suburbs Mc",
   "state_name":"New South Wales",
   "state_code":"NSW",
   "latitude":-33.7554,
   "longitude":151.1998,
   "accuracy":1
 },
 {
   "postcode":1692,
   "place_name":"Northern Suburbs Mc",
   "state_name":"New South Wales",
   "state_code":"NSW",
   "latitude":-33.7554,
   "longitude":151.1998,
   "accuracy":1
 },
 {
   "postcode":1693,
   "place_name":"Northern Suburbs Mc",
   "state_name":"New South Wales",
   "state_code":"NSW",
   "latitude":-33.7554,
   "longitude":151.1998,
   "accuracy":1
 },
 {
   "postcode":1694,
   "place_name":"Northern Suburbs Mc",
   "state_name":"New South Wales",
   "state_code":"NSW",
   "latitude":-33.7554,
   "longitude":151.1998,
   "accuracy":1
 },
 {
   "postcode":1695,
   "place_name":"Northern Suburbs Mc",
   "state_name":"New South Wales",
   "state_code":"NSW",
   "latitude":-33.7554,
   "longitude":151.1998,
   "accuracy":1
 },
 {
   "postcode":1696,
   "place_name":"Northern Suburbs Mc",
   "state_name":"New South Wales",
   "state_code":"NSW",
   "latitude":-33.7554,
   "longitude":151.1998,
   "accuracy":1
 },
 {
   "postcode":1697,
   "place_name":"Northern Suburbs Mc",
   "state_name":"New South Wales",
   "state_code":"NSW",
   "latitude":-33.7554,
   "longitude":151.1998,
   "accuracy":1
 },
 {
   "postcode":1698,
   "place_name":"Northern Suburbs Mc",
   "state_name":"New South Wales",
   "state_code":"NSW",
   "latitude":-33.7554,
   "longitude":151.1998,
   "accuracy":1
 },
 {
   "postcode":1699,
   "place_name":"Northern Suburbs Mc",
   "state_name":"New South Wales",
   "state_code":"NSW",
   "latitude":-33.7554,
   "longitude":151.1998,
   "accuracy":1
 },
 {
   "postcode":1700,
   "place_name":"Ermington",
   "state_name":"New South Wales",
   "state_code":"NSW",
   "latitude":-33.8148,
   "longitude":151.0547,
   "accuracy":4
 },
 {
   "postcode":1701,
   "place_name":"Rydalmere Bc",
   "state_name":"New South Wales",
   "state_code":"NSW",
   "latitude":-33.7613,
   "longitude":151.0294,
   "accuracy":1
 },
 {
   "postcode":1710,
   "place_name":"Epping",
   "state_name":"New South Wales",
   "state_code":"NSW",
   "latitude":-33.7727,
   "longitude":151.0818,
   "accuracy":4
 },
 {
   "postcode":1712,
   "place_name":"Epping",
   "state_name":"New South Wales",
   "state_code":"NSW",
   "latitude":-33.7727,
   "longitude":151.0818,
   "accuracy":4
 },
 {
   "postcode":1715,
   "place_name":"Pennant Hills",
   "state_name":"New South Wales",
   "state_code":"NSW",
   "latitude":-33.7378,
   "longitude":151.0722,
   "accuracy":4
 },
 {
   "postcode":1730,
   "place_name":"Seven Hills",
   "state_name":"New South Wales",
   "state_code":"NSW",
   "latitude":-33.7833,
   "longitude":150.9333,
   "accuracy":4
 },
 {
   "postcode":1740,
   "place_name":"Parramatta",
   "state_name":"New South Wales",
   "state_code":"NSW",
   "latitude":-33.7613,
   "longitude":151.0294,
   "accuracy":1
 },
 {
   "postcode":1741,
   "place_name":"Parramatta",
   "state_name":"New South Wales",
   "state_code":"NSW",
   "latitude":-33.7613,
   "longitude":151.0294,
   "accuracy":1
 },
 {
   "postcode":1750,
   "place_name":"North Parramatta",
   "state_name":"New South Wales",
   "state_code":"NSW",
   "latitude":-33.7935,
   "longitude":151.0012,
   "accuracy":4
 },
 {
   "postcode":1755,
   "place_name":"Baulkham Hills",
   "state_name":"New South Wales",
   "state_code":"NSW",
   "latitude":-33.7588,
   "longitude":150.9929,
   "accuracy":4
 },
 {
   "postcode":1765,
   "place_name":"Castle Hill",
   "state_name":"New South Wales",
   "state_code":"NSW",
   "latitude":-33.7333,
   "longitude":151,
   "accuracy":4
 },
 {
   "postcode":1771,
   "place_name":"Pennant Hills",
   "state_name":"New South Wales",
   "state_code":"NSW",
   "latitude":-33.7378,
   "longitude":151.0722,
   "accuracy":4
 },
 {
   "postcode":1781,
   "place_name":"Seven Hills Mc",
   "state_name":"New South Wales",
   "state_code":"NSW",
   "latitude":-33.7613,
   "longitude":151.0294,
   "accuracy":1
 },
 {
   "postcode":1790,
   "place_name":"St Marys",
   "state_name":"New South Wales",
   "state_code":"NSW",
   "latitude":-33.7613,
   "longitude":151.0294,
   "accuracy":1
 },
 {
   "postcode":1797,
   "place_name":"Penrith South DC",
   "state_name":"New South Wales",
   "state_code":"NSW",
   "latitude":-33.7613,
   "longitude":151.0294,
   "accuracy":1
 },
 {
   "postcode":1800,
   "place_name":"Ashfield",
   "state_name":"New South Wales",
   "state_code":"NSW",
   "latitude":-33.8883,
   "longitude":151.1227,
   "accuracy":4
 },
 {
   "postcode":1805,
   "place_name":"Burwood",
   "state_name":"New South Wales",
   "state_code":"NSW",
   "latitude":-33.8833,
   "longitude":151.1,
   "accuracy":4
 },
 {
   "postcode":1811,
   "place_name":"Silverwater",
   "state_name":"New South Wales",
   "state_code":"NSW",
   "latitude":-33.8334,
   "longitude":151.0473,
   "accuracy":4
 },
 {
   "postcode":1825,
   "place_name":"Lidcombe",
   "state_name":"New South Wales",
   "state_code":"NSW",
   "latitude":-33.8644,
   "longitude":151.0397,
   "accuracy":4
 },
 {
   "postcode":1826,
   "place_name":"Lidcombe",
   "state_name":"New South Wales",
   "state_code":"NSW",
   "latitude":-33.8644,
   "longitude":151.0397,
   "accuracy":4
 },
 {
   "postcode":1830,
   "place_name":"Granville",
   "state_name":"New South Wales",
   "state_code":"NSW",
   "latitude":-33.8333,
   "longitude":151.0167,
   "accuracy":4
 },
 {
   "postcode":1831,
   "place_name":"Granville",
   "state_name":"New South Wales",
   "state_code":"NSW",
   "latitude":-33.8333,
   "longitude":151.0167,
   "accuracy":4
 },
 {
   "postcode":1835,
   "place_name":"Auburn",
   "state_name":"New South Wales",
   "state_code":"NSW",
   "latitude":-33.85,
   "longitude":151.0333,
   "accuracy":4
 },
 {
   "postcode":1848,
   "place_name":"Guildford",
   "state_name":"New South Wales",
   "state_code":"NSW",
   "latitude":-33.8643,
   "longitude":150.9839,
   "accuracy":1
 },
 {
   "postcode":1851,
   "place_name":"Wetherill Park Dc",
   "state_name":"New South Wales",
   "state_code":"NSW",
   "latitude":-33.8872,
   "longitude":151.0086,
   "accuracy":1
 },
 {
   "postcode":1860,
   "place_name":"Fairfield",
   "state_name":"New South Wales",
   "state_code":"NSW",
   "latitude":-33.8667,
   "longitude":150.95,
   "accuracy":4
 },
 {
   "postcode":1871,
   "place_name":"Liverpool",
   "state_name":"New South Wales",
   "state_code":"NSW",
   "latitude":-33.9,
   "longitude":150.9333,
   "accuracy":4
 },
 {
   "postcode":1875,
   "place_name":"Moorebank",
   "state_name":"New South Wales",
   "state_code":"NSW",
   "latitude":-33.9425,
   "longitude":150.9377,
   "accuracy":4
 },
 {
   "postcode":1885,
   "place_name":"Bankstown",
   "state_name":"New South Wales",
   "state_code":"NSW",
   "latitude":-33.9167,
   "longitude":151.0333,
   "accuracy":4
 },
 {
   "postcode":1888,
   "place_name":"Bankstown",
   "state_name":"New South Wales",
   "state_code":"NSW",
   "latitude":-33.9167,
   "longitude":151.0333,
   "accuracy":4
 },
 {
   "postcode":1890,
   "place_name":"Ingleburn",
   "state_name":"New South Wales",
   "state_code":"NSW",
   "latitude":-34,
   "longitude":150.8667,
   "accuracy":4
 },
 {
   "postcode":1891,
   "place_name":"Milperra",
   "state_name":"New South Wales",
   "state_code":"NSW",
   "latitude":-33.9393,
   "longitude":150.9815,
   "accuracy":4
 },
 {
   "postcode":1900,
   "place_name":"Leightonfield Mc",
   "state_name":"New South Wales",
   "state_code":"NSW",
   "latitude":-33.8816,
   "longitude":150.9844,
   "accuracy":null
 },
 {
   "postcode":1902,
   "place_name":"Leightonfield Mc",
   "state_name":"New South Wales",
   "state_code":"NSW",
   "latitude":-33.8816,
   "longitude":150.9844,
   "accuracy":null
 },
 {
   "postcode":2000,
   "place_name":"Sydney",
   "state_name":"New South Wales",
   "state_code":"NSW",
   "latitude":-33.8678,
   "longitude":151.2073,
   "accuracy":4
 },
 {
   "postcode":2000,
   "place_name":"Dawes Point",
   "state_name":"New South Wales",
   "state_code":"NSW",
   "latitude":-33.8561,
   "longitude":151.2077,
   "accuracy":4
 },
 {
   "postcode":2000,
   "place_name":"The Rocks",
   "state_name":"New South Wales",
   "state_code":"NSW",
   "latitude":-33.8592,
   "longitude":151.2081,
   "accuracy":4
 },
 {
   "postcode":2000,
   "place_name":"Parliament House",
   "state_name":"New South Wales",
   "state_code":"NSW",
   "latitude":-33.8651,
   "longitude":151.2053,
   "accuracy":3
 },
 {
   "postcode":2000,
   "place_name":"Sydney South",
   "state_name":"New South Wales",
   "state_code":"NSW",
   "latitude":-33.8699,
   "longitude":151.2025,
   "accuracy":3
 },
 {
   "postcode":2000,
   "place_name":"Barangaroo",
   "state_name":"New South Wales",
   "state_code":"NSW",
   "latitude":-33.8603,
   "longitude":151.2016,
   "accuracy":4
 },
 {
   "postcode":2000,
   "place_name":"Millers Point",
   "state_name":"New South Wales",
   "state_code":"NSW",
   "latitude":-33.8596,
   "longitude":151.2041,
   "accuracy":4
 },
 {
   "postcode":2000,
   "place_name":"Haymarket",
   "state_name":"New South Wales",
   "state_code":"NSW",
   "latitude":-33.8787,
   "longitude":151.2053,
   "accuracy":4
 },
 {
   "postcode":2001,
   "place_name":"Sydney",
   "state_name":"New South Wales",
   "state_code":"NSW",
   "latitude":-33.8678,
   "longitude":151.2073,
   "accuracy":4
 },
 {
   "postcode":2002,
   "place_name":"World Square",
   "state_name":"New South Wales",
   "state_code":"NSW",
   "latitude":-33.8699,
   "longitude":151.2025,
   "accuracy":1
 },
 {
   "postcode":2004,
   "place_name":"Alexandria Mc",
   "state_name":"New South Wales",
   "state_code":"NSW",
   "latitude":-33.8699,
   "longitude":151.2025,
   "accuracy":1
 },
 {
   "postcode":2004,
   "place_name":"Eastern Suburbs Mc",
   "state_name":"New South Wales",
   "state_code":"NSW",
   "latitude":-33.8699,
   "longitude":151.2025,
   "accuracy":1
 },
 {
   "postcode":2006,
   "place_name":"The University Of Sydney",
   "state_name":"New South Wales",
   "state_code":"NSW",
   "latitude":-33.8699,
   "longitude":151.2025,
   "accuracy":1
 },
 {
   "postcode":2007,
   "place_name":"Broadway",
   "state_name":"New South Wales",
   "state_code":"NSW",
   "latitude":-33.8699,
   "longitude":151.2025,
   "accuracy":3
 },
 {
   "postcode":2007,
   "place_name":"Ultimo",
   "state_name":"New South Wales",
   "state_code":"NSW",
   "latitude":-33.8772,
   "longitude":151.1972,
   "accuracy":4
 },
 {
   "postcode":2008,
   "place_name":"Darlington",
   "state_name":"New South Wales",
   "state_code":"NSW",
   "latitude":-33.891,
   "longitude":151.1955,
   "accuracy":4
 },
 {
   "postcode":2008,
   "place_name":"Chippendale",
   "state_name":"New South Wales",
   "state_code":"NSW",
   "latitude":-33.8867,
   "longitude":151.1975,
   "accuracy":4
 },
 {
   "postcode":2009,
   "place_name":"Pyrmont",
   "state_name":"New South Wales",
   "state_code":"NSW",
   "latitude":-33.8698,
   "longitude":151.194,
   "accuracy":4
 },
 {
   "postcode":2010,
   "place_name":"Darlinghurst",
   "state_name":"New South Wales",
   "state_code":"NSW",
   "latitude":-33.8794,
   "longitude":151.2193,
   "accuracy":4
 },
 {
   "postcode":2010,
   "place_name":"Surry Hills",
   "state_name":"New South Wales",
   "state_code":"NSW",
   "latitude":-33.8837,
   "longitude":151.2128,
   "accuracy":4
 },
 {
   "postcode":2011,
   "place_name":"Kings Cross",
   "state_name":"New South Wales",
   "state_code":"NSW",
   "latitude":-33.875,
   "longitude":151.2223,
   "accuracy":4
 },
 {
   "postcode":2011,
   "place_name":"Potts Point",
   "state_name":"New South Wales",
   "state_code":"NSW",
   "latitude":-33.8713,
   "longitude":151.222,
   "accuracy":4
 },
 {
   "postcode":2011,
   "place_name":"Rushcutters Bay",
   "state_name":"New South Wales",
   "state_code":"NSW",
   "latitude":-33.8748,
   "longitude":151.228,
   "accuracy":4
 },
 {
   "postcode":2011,
   "place_name":"Elizabeth Bay",
   "state_name":"New South Wales",
   "state_code":"NSW",
   "latitude":-33.8718,
   "longitude":151.2271,
   "accuracy":4
 },
 {
   "postcode":2011,
   "place_name":"Woolloomooloo",
   "state_name":"New South Wales",
   "state_code":"NSW",
   "latitude":-33.8704,
   "longitude":151.2197,
   "accuracy":4
 },
 {
   "postcode":2012,
   "place_name":"Strawberry Hills",
   "state_name":"New South Wales",
   "state_code":"NSW",
   "latitude":-33.9032,
   "longitude":150.9677,
   "accuracy":1
 },
 {
   "postcode":2015,
   "place_name":"Eveleigh",
   "state_name":"New South Wales",
   "state_code":"NSW",
   "latitude":-33.8956,
   "longitude":151.1924,
   "accuracy":4
 },
 {
   "postcode":2015,
   "place_name":"Alexandria",
   "state_name":"New South Wales",
   "state_code":"NSW",
   "latitude":-33.9022,
   "longitude":151.2004,
   "accuracy":4
 },
 {
   "postcode":2015,
   "place_name":"Beaconsfield",
   "state_name":"New South Wales",
   "state_code":"NSW",
   "latitude":-33.9115,
   "longitude":151.2004,
   "accuracy":4
 },
 {
   "postcode":2016,
   "place_name":"Redfern",
   "state_name":"New South Wales",
   "state_code":"NSW",
   "latitude":-33.8928,
   "longitude":151.2041,
   "accuracy":4
 },
 {
   "postcode":2017,
   "place_name":"Waterloo",
   "state_name":"New South Wales",
   "state_code":"NSW",
   "latitude":-33.9167,
   "longitude":151.2,
   "accuracy":4
 },
 {
   "postcode":2017,
   "place_name":"Zetland",
   "state_name":"New South Wales",
   "state_code":"NSW",
   "latitude":-33.9075,
   "longitude":151.2086,
   "accuracy":4
 },
 {
   "postcode":2018,
   "place_name":"Rosebery",
   "state_name":"New South Wales",
   "state_code":"NSW",
   "latitude":-33.9167,
   "longitude":151.2,
   "accuracy":4
 },
 {
   "postcode":2018,
   "place_name":"Eastlakes",
   "state_name":"New South Wales",
   "state_code":"NSW",
   "latitude":-33.932,
   "longitude":151.2121,
   "accuracy":4
 },
 {
   "postcode":2019,
   "place_name":"Botany",
   "state_name":"New South Wales",
   "state_code":"NSW",
   "latitude":-33.946,
   "longitude":151.1959,
   "accuracy":4
 },
 {
   "postcode":2019,
   "place_name":"Banksmeadow",
   "state_name":"New South Wales",
   "state_code":"NSW",
   "latitude":-33.9566,
   "longitude":151.2096,
   "accuracy":4
 },
 {
   "postcode":2020,
   "place_name":"Sydney International Airport",
   "state_name":"New South Wales",
   "state_code":"NSW",
   "latitude":-33.939,
   "longitude":151.1862,
   "accuracy":3
 },
 {
   "postcode":2020,
   "place_name":"Mascot",
   "state_name":"New South Wales",
   "state_code":"NSW",
   "latitude":-33.926,
   "longitude":151.1935,
   "accuracy":4
 },
 {
   "postcode":2020,
   "place_name":"Sydney Domestic Airport",
   "state_name":"New South Wales",
   "state_code":"NSW",
   "latitude":-33.939,
   "longitude":151.1862,
   "accuracy":3
 },
 {
   "postcode":2021,
   "place_name":"Paddington",
   "state_name":"New South Wales",
   "state_code":"NSW",
   "latitude":-33.8842,
   "longitude":151.2315,
   "accuracy":4
 },
 {
   "postcode":2021,
   "place_name":"Moore Park",
   "state_name":"New South Wales",
   "state_code":"NSW",
   "latitude":-33.9014,
   "longitude":151.2138,
   "accuracy":4
 },
 {
   "postcode":2021,
   "place_name":"Centennial Park",
   "state_name":"New South Wales",
   "state_code":"NSW",
   "latitude":-33.8979,
   "longitude":151.2336,
   "accuracy":4
 },
 {
   "postcode":2022,
   "place_name":"Queens Park",
   "state_name":"New South Wales",
   "state_code":"NSW",
   "latitude":-33.8995,
   "longitude":151.2472,
   "accuracy":4
 },
 {
   "postcode":2022,
   "place_name":"Bondi Junction",
   "state_name":"New South Wales",
   "state_code":"NSW",
   "latitude":-33.8928,
   "longitude":151.2472,
   "accuracy":4
 },
 {
   "postcode":2023,
   "place_name":"Bellevue Hill",
   "state_name":"New South Wales",
   "state_code":"NSW",
   "latitude":-33.879,
   "longitude":151.251,
   "accuracy":4
 },
 {
   "postcode":2024,
   "place_name":"Bronte",
   "state_name":"New South Wales",
   "state_code":"NSW",
   "latitude":-33.902,
   "longitude":151.2656,
   "accuracy":4
 },
 {
   "postcode":2024,
   "place_name":"Waverley",
   "state_name":"New South Wales",
   "state_code":"NSW",
   "latitude":-33.8977,
   "longitude":151.2501,
   "accuracy":4
 },
 {
   "postcode":2025,
   "place_name":"Woollahra",
   "state_name":"New South Wales",
   "state_code":"NSW",
   "latitude":-33.8878,
   "longitude":151.2368,
   "accuracy":4
 },
 {
   "postcode":2026,
   "place_name":"Tamarama",
   "state_name":"New South Wales",
   "state_code":"NSW",
   "latitude":-33.8984,
   "longitude":151.2706,
   "accuracy":4
 },
 {
   "postcode":2026,
   "place_name":"Bondi Beach",
   "state_name":"New South Wales",
   "state_code":"NSW",
   "latitude":-33.891,
   "longitude":151.2716,
   "accuracy":4
 },
 {
   "postcode":2026,
   "place_name":"Bondi",
   "state_name":"New South Wales",
   "state_code":"NSW",
   "latitude":-33.8943,
   "longitude":151.2644,
   "accuracy":4
 },
 {
   "postcode":2026,
   "place_name":"North Bondi",
   "state_name":"New South Wales",
   "state_code":"NSW",
   "latitude":-33.8853,
   "longitude":151.2752,
   "accuracy":4
 },
 {
   "postcode":2026,
   "place_name":"Ben Buckler",
   "state_name":"New South Wales",
   "state_code":"NSW",
   "latitude":-33.8904,
   "longitude":151.2475,
   "accuracy":3
 },
 {
   "postcode":2027,
   "place_name":"Darling Point",
   "state_name":"New South Wales",
   "state_code":"NSW",
   "latitude":-33.8706,
   "longitude":151.2389,
   "accuracy":4
 },
 {
   "postcode":2027,
   "place_name":"Hmas Rushcutters",
   "state_name":"New South Wales",
   "state_code":"NSW",
   "latitude":-33.8688,
   "longitude":151.2444,
   "accuracy":3
 },
 {
   "postcode":2027,
   "place_name":"Point Piper",
   "state_name":"New South Wales",
   "state_code":"NSW",
   "latitude":-33.8667,
   "longitude":151.25,
   "accuracy":4
 },
 {
   "postcode":2027,
   "place_name":"Edgecliff",
   "state_name":"New South Wales",
   "state_code":"NSW",
   "latitude":-33.8833,
   "longitude":151.25,
   "accuracy":4
 },
 {
   "postcode":2028,
   "place_name":"Double Bay",
   "state_name":"New South Wales",
   "state_code":"NSW",
   "latitude":-33.8778,
   "longitude":151.2435,
   "accuracy":4
 },
 {
   "postcode":2029,
   "place_name":"Rose Bay",
   "state_name":"New South Wales",
   "state_code":"NSW",
   "latitude":-33.8688,
   "longitude":151.2706,
   "accuracy":4
 },
 {
   "postcode":2030,
   "place_name":"Vaucluse",
   "state_name":"New South Wales",
   "state_code":"NSW",
   "latitude":-33.8555,
   "longitude":151.2775,
   "accuracy":4
 },
 {
   "postcode":2030,
   "place_name":"Dover Heights",
   "state_name":"New South Wales",
   "state_code":"NSW",
   "latitude":-33.8708,
   "longitude":151.2792,
   "accuracy":4
 },
 {
   "postcode":2030,
   "place_name":"Watsons Bay",
   "state_name":"New South Wales",
   "state_code":"NSW",
   "latitude":-33.8439,
   "longitude":151.2829,
   "accuracy":4
 },
 {
   "postcode":2030,
   "place_name":"Hmas Watson",
   "state_name":"New South Wales",
   "state_code":"NSW",
   "latitude":-33.8625,
   "longitude":151.2819,
   "accuracy":3
 },
 {
   "postcode":2030,
   "place_name":"Rose Bay North",
   "state_name":"New South Wales",
   "state_code":"NSW",
   "latitude":-33.8572,
   "longitude":151.2784,
   "accuracy":3
 },
 {
   "postcode":2031,
   "place_name":"Clovelly",
   "state_name":"New South Wales",
   "state_code":"NSW",
   "latitude":-33.9121,
   "longitude":151.2588,
   "accuracy":4
 },
 {
   "postcode":2031,
   "place_name":"Randwick",
   "state_name":"New South Wales",
   "state_code":"NSW",
   "latitude":-33.9144,
   "longitude":151.2489,
   "accuracy":4
 },
 {
   "postcode":2031,
   "place_name":"St Pauls",
   "state_name":"New South Wales",
   "state_code":"NSW",
   "latitude":-33.9251,
   "longitude":151.231,
   "accuracy":3
 },
 {
   "postcode":2031,
   "place_name":"Clovelly West",
   "state_name":"New South Wales",
   "state_code":"NSW",
   "latitude":-33.9251,
   "longitude":151.231,
   "accuracy":3
 },
 {
   "postcode":2032,
   "place_name":"Kingsford",
   "state_name":"New South Wales",
   "state_code":"NSW",
   "latitude":-33.924,
   "longitude":151.2275,
   "accuracy":4
 },
 {
   "postcode":2032,
   "place_name":"Daceyville",
   "state_name":"New South Wales",
   "state_code":"NSW",
   "latitude":-33.9333,
   "longitude":151.2333,
   "accuracy":4
 },
 {
   "postcode":2033,
   "place_name":"Kensington",
   "state_name":"New South Wales",
   "state_code":"NSW",
   "latitude":-33.9202,
   "longitude":151.2224,
   "accuracy":4
 },
 {
   "postcode":2034,
   "place_name":"South Coogee",
   "state_name":"New South Wales",
   "state_code":"NSW",
   "latitude":-33.9205,
   "longitude":151.2552,
   "accuracy":4
 },
 {
   "postcode":2034,
   "place_name":"Coogee",
   "state_name":"New South Wales",
   "state_code":"NSW",
   "latitude":-33.9205,
   "longitude":151.2552,
   "accuracy":4
 },
 {
   "postcode":2035,
   "place_name":"Maroubra",
   "state_name":"New South Wales",
   "state_code":"NSW",
   "latitude":-33.95,
   "longitude":151.2333,
   "accuracy":4
 },
 {
   "postcode":2035,
   "place_name":"Pagewood",
   "state_name":"New South Wales",
   "state_code":"NSW",
   "latitude":-33.9414,
   "longitude":151.2109,
   "accuracy":4
 },
 {
   "postcode":2035,
   "place_name":"Maroubra South",
   "state_name":"New South Wales",
   "state_code":"NSW",
   "latitude":-33.9445,
   "longitude":151.2265,
   "accuracy":3
 },
 {
   "postcode":2036,
   "place_name":"Phillip Bay",
   "state_name":"New South Wales",
   "state_code":"NSW",
   "latitude":-33.9816,
   "longitude":151.234,
   "accuracy":4
 },
 {
   "postcode":2036,
   "place_name":"Hillsdale",
   "state_name":"New South Wales",
   "state_code":"NSW",
   "latitude":-33.9515,
   "longitude":151.2278,
   "accuracy":4
 },